Store_Name,Longitude,Latitude,Address,Address Line #2,City,State,Zip5,Zip4,County,
"INGLES MARKETS  450",-83.317039,34.02924,"9151 Highway 29 S","","Hull","GA","30646","3772","MADISON" 
"Choose #1",-81.679497,30.777405,"113 Scrubby Bluff Rd","","Kingsland","GA","31548","5503","CAMDEN" 
"RAINBOW FOODS LLC",-84.924973,32.463577,"4105 Buena Vista Rd","","Columbus","GA","31907","","MUSCOGEE" 
"M L K MARKET",-83.178482,33.566704,"1340 M L K JR DR","","GREENSBORO","GA","30642","","GREENE" 
"Rite Aid 11739",-84.813789,33.816944,"4692 Ridge Rd","","Douglasville","GA","30134","6150","DOUGLAS" 
"WALGREEN'S 7199",-85.180634,34.260895,"701 Martha Berry Blvd NW","","Rome","GA","30165","1637","FLOYD" 
"Rite Aid 11780",-84.533081,33.342178,"1232 Highway 74 S","","Peachtree City","GA","30269","3072","FAYETTE" 
"SHOP N GO",-84.208443,33.898052,"6083 S NORCROSS-TUCKER RD","","NORCROSS","GA","30093","","GWINNETT" 
"R & R QUICK MART",-83.777077,31.174337,"1009 5th Ave SE","","Moultrie","GA","31768","4916","COLQUITT" 
"P & V Foodmart",-81.116737,32.068085,"1402 Stiles Ave","","Savannah","GA","31415","7868","CHATHAM" 
"Lay's Food Mart #2",-83.486465,33.940384,"4360 Atlanta Hwy","","Bogart","GA","30622","2207","OCONEE" 
"SHAWNEE CONVENIENCE STORE",-81.398819,32.483028,"123 Shawnee Rd","","Springfield","GA","31329","3309","EFFINGHAM" 
"PUBLIX 1089",-84.208099,34.093075,"5180 McGinnis Ferry Rd","","Alpharetta","GA","30005","1792","FULTON" 
"PUBLIX 1008",-83.693855,32.547405,"1114 HWY 96","","KATHLEEN","GA","31047","2111","HOUSTON" 
"Super H Mart",-84.144844,33.968555,"2550 Pleasant Hill Rd","","Duluth","GA","30096","4122","GWINNETT" 
"FOOD DEPOT 38",-84.441513,33.468758,"200 Banks Road","","Fayetteville","GA","30214","","FAYETTE" 
"LAKELAND QUICK MART",-83.07518,31.040928,"121 S Valdosta Rd","","Lakeland","GA","31635","1138","LANIER" 
"DOLLAR GENERAL 6757",-82.780067,32.145046,"319 W MAIN STREET","","ALAMO","GA","30411","","WHEELER" 
"DOLLAR GENERAL 6341",-83.691811,34.39579,"6117 Lula Rd","","Lula","GA","30554","2330","HALL" 
"DOLLAR GENERAL 6720",-84.738602,34.986603,"14 PINE STREET","","TENNGA","GA","30751","","MURRAY" 
"DOLLAR GENERAL 6616",-82.822861,31.520588,"1201 US Highway 221 N","","Douglas","GA","31533","6852","COFFEE" 
"DOLLAR GENERAL 6688",-84.891541,33.806553,"8266 Villa Rica Hwy","","Villa Rica","GA","30180","4207","CARROLL" 
"DOLLAR GENERAL 6546",-85.073792,33.547504,"1561 S Highway 27","","CARROLLTON","GA","30117","","CARROLL" 
"SMART MART 5",-85.255219,33.984612,"1765 Buchanan Hwy","","Cedartown","GA","30125","5380","POLK" 
"OXLEY'S IGA # 4",-83.738373,30.959824,"3086 E Harris St","","Pavo","GA","31778","2148","THOMAS" 
"Walgreens 7764",-84.557693,34.058174,"4360 Bells Ferry Rd NW","","Kennesaw","GA","30144","1354","COBB" 
"CHEVRON FOOD MART",-84.214027,33.787109,"4402 Rockbridge Rd","","Stone Mountain","GA","30083","4239","DEKALB" 
"DOLLAR GENERAL 6880",-82.015854,33.325294,"1718 Brown Rd","","Hephzibah","GA","30815","4404","RICHMOND" 
"DOLLAR GENERAL  9921",-85.008301,34.413063,"3483 Rome Rd SW","","Plainville","GA","30733","9740","GORDON" 
"DOLLAR GENERAL  6613",-84.198807,33.532757,"3440 Highway 42","","Stockbridge","GA","30281","4443","HENRY" 
"CONOCO FOOD MART",-84.561928,33.814594,"268 VETERAN MEMORIAL HWY","","MABLETON","GA","30126","","COBB" 
"DOLLAR GENERAL 6547",-84.970657,33.644817,"3960 Carrollton Villa Rica Hwy","","Carrollton","GA","30116","5539","CARROLL" 
"DOLLAR GENERAL 6884",-84.393715,32.032612,"118 Ml Hudson St S","","Plains","GA","31780","5660","SUMTER" 
"Stop n Buy",-84.583481,30.911453,"835 Dothan Rd","","Bainbridge","GA","39817","3056","DECATUR" 
"SCANDINAVIAN HOUSE GROCERY",-84.384766,33.774014,"710 Peachtree St NE","Ste 119","Atlanta","GA","30308","1271","FULTON" 
"DEANS BRIDGE FAST FARE",-82.0867,33.413631,"4002 DEANS BRIDGE RD","","AUGUSTA","GA","30906","","RICHMOND" 
"CARNICERIA RAMIREZ",-84.45002,33.820389,"2600 Bolton Rd NW","","Atlanta","GA","30318","1325","FULTON" 
"Griffin's I",-82.29277,31.194605,"3900 Brunswick Hwy","","Waycross","GA","31503","7503","WARE" 
"Harper Seafood Retail",-83.984245,30.832144,"526 W Jackson St","","Thomasville","GA","31792","5903","THOMAS" 
"Choice Quick Stop",-83.600563,32.613136,"218 Martin Luther King Jr Blvd","","Warner Robins","GA","31088","4763","HOUSTON" 
"CLYDES MARKET 57",-81.913155,31.657951,"3100 Lanes Bridge Rd","","Jesup","GA","31545","7964","WAYNE" 
"Walgreens 2359",-84.305069,33.895187,"5373 Peachtree Industrial Blvd","","Chamblee","GA","30310","","FULTON" 
"Walgreens 7134",-83.409813,33.950829,"110 Hawthorne Ave","","Athens","GA","30606","2814","CLARKE" 
"MILLEDGE FOODS & GAS",-83.247284,33.074757,"1431 W Hancock St","","Milledgeville","GA","31061","3132","BALDWIN" 
"CHEVRON FOOD MART",-84.418266,33.698589,"2050 Sylvan Rd SW","","Atlanta","GA","30310","5022","FULTON" 
"QUIKTRIP 724",-84.435982,33.608368,"5390 Riverdale Rd","","Atlanta","GA","30349","5710","FULTON" 
"IVOIRE MARKET",-84.291237,33.891506,"3245 Chamblee Dunwoody Rd","Ste A209","Atlanta","GA","30341","2993","DEKALB" 
"PUBLIX 1112",-84.524422,33.804119,"1025 Veterans Memorial Hwy SE","Ste 400","Mableton","GA","30126","7709","COBB" 
"Rite Aid 11753",-84.78875,33.95821,"76 E Paulding Dr","","Dallas","GA","30157","1401","PAULDING" 
"Sav-a-Lot",-82.388191,31.208828,"1984 S Georgia Pkwy W","","Waycross","GA","31503","0149","WARE" 
"Stella Mart Food Store",-83.99041,33.943287,"243 Scenic Hwy","","Lawrenceville","GA","30046","8402","GWINNETT" 
"Cheap Tobacco",-85.298447,33.744331,"1833 U S Highway 78","","Tallapoosa","GA","30176","1369","HARALSON" 
"NALLEY'S SHELL",-84.207893,33.96917,"3415 Medlock Bridge Rd","","Norcross","GA","30092","2630","GWINNETT" 
"DOLLAR GENERAL 9814",-83.613068,32.868153,"1730 Gray Hwy","","Macon","GA","31211","","BIBB" 
"Flash Foods 272",-83.325211,30.842087,"1201 N Saint Augustine Rd","","Valdosta","GA","31601","3544","LOWNDES" 
"DOLLAR GENERAL 6320",-84.955627,32.506725,"2602 Manchester Expy","","Columbus","GA","31904","5207","MUSCOGEE" 
"GET N FLY FOOD MART",-84.814774,34.158264,"786 West Ave","","Cartersville","GA","30120","3402","BARTOW" 
"Quick Buy Food Store",-83.799393,31.955257,"1026 E 24th Ave","","Cordele","GA","31015","2109","CRISP" 
"QUICK FOOD MART",-84.450264,33.750275,"1977 Martin Luther King Jr Dr SW","","Atlanta","GA","30310","1109","FULTON" 
"FLASH FOODS 271",-83.280846,30.854609,"1800 N Ashley St","","Valdosta","GA","31602","3025","LOWNDES" 
"Flash Foods 273",-83.3321,30.89712,"4204 N Valdosta Rd","","Valdosta","GA","31602","6814","LOWNDES" 
"Flash Foods 275",-83.499466,30.946291,"11596 Adel Hwy","","Morven","GA","31638","","BROOKS" 
"Flash Foods 276",-83.557114,30.784723,"401 E Screven St","","Quitman","GA","31643","2133","BROOKS" 
"Flash Foods 278",-84.001572,30.816368,"6358 US Highway 319 S","","Thomasville","GA","31792","8862","THOMAS" 
"Flash Foods 280",-83.947632,30.846848,"2267 E Pinetree Blvd","","Thomasville","GA","31792","4824","THOMAS" 
"Flash Foods 281",-84.082443,31.080019,"317 US Hwy 19 NE","","Pelham","GA","31799","","THOMAS" 
"Flash Foods 282",-84.212708,31.223101,"195 S Boulevard St","","Camilla","GA","31730","2009","MITCHELL" 
"Flash Foods 285",-84.220215,31.585749,"2701 Gillionville Rd","","Albany","GA","31721","2901","DOUGHERTY" 
"Flash Foods 286",-84.224403,31.613548,"2825 Old Dawson Rd","","Albany","GA","31707","1411","DOUGHERTY" 
"Flash Foods 288",-83.490059,31.447004,"1203 US Highway 82 E","","Tifton","GA","31794","","TIFT" 
"BROXTON GROCERY",-82.887077,31.624704,"108 Ocmulgee St W","","Broxton","GA","31519","6067","COFFEE" 
"Rite Aid 11686",-83.89418,33.988014,"2580 Winder Hwy","","Dacula","GA","30019","1328","GWINNETT" 
"Rite Aid 11773",-84.121078,33.467655,"961 Highway 20 81","","McDonough","GA","30253","6517","HENRY" 
"ASSI PLAZA SUGARLOAF INC",-84.08709,34.018742,"1291 Old Peachtree Rd NW","","Suwanee","GA","30024","2021","GWINNETT" 
"Walgreens 7526",-84.464783,33.924561,"2975 Delk Rd SE","","Marietta","GA","30067","5318","COBB" 
"CVS Pharmacy 4583",-82.022888,33.508671,"2703 Washington Rd","","Augusta","GA","30909","2244","RICHMOND" 
"GULF SEAFOOD MARKET",-84.924538,33.732853,"339 W Bankhead Hwy","","Villa Rica","GA","30180","1815","CARROLL" 
"Bourda Green Caribbean Grocery & Variety Store",-84.214783,33.704636,"2575 Snapfinger Rd","Ste J","Decatur","GA","30034","2300","DEKALB" 
"Aldi 54",-84.14669,33.970127,"2618 Pleasant Hill Rd","","Duluth","GA","30096","4120","GWINNETT" 
"SHELL FOOD MART",-84.490967,33.692333,"3113 Campbellton Rd SW","","Atlanta","GA","30311","5301","FULTON" 
"SPEEGO GAS",-84.090141,31.571043,"224 Johnson Rd","","Albany","GA","31705","3029","DOUGHERTY" 
"Rite Aid 11752",-84.628716,33.991417,"1550 Kennesaw Due West Rd NW","","Kennesaw","GA","30152","4338","COBB" 
"WALGREENS 6208",-84.166595,33.452946,"204 Jonesboro Rd","","McDonough","GA","30253","3720","HENRY" 
"GRIFFIN'S II",-82.134964,31.181149,"101 E MAIN STREET","","HOBOKEN","GA","31542","","BRANTLEY" 
"DIYA FOODS",-84.23407,32.070332,"202 W Church St","","Americus","GA","31709","3509","SUMTER" 
"Bo Bo II Seafood",-81.608795,31.834051,"351 Deal St","Unit A","Hinesville","GA","31313","4208","LIBERTY" 
"WAL-MART SUPERCENTER 5275",-84.582642,34.114281,"6435 Bells Ferry Rd","","Woodstock","GA","30189","2317","CHEROKEE" 
"WAL-MART SUPERCENTER 5363",-84.323387,33.444347,"11449 TARA BLVD","","LOVEJOY","GA","30250","","CLAYTON" 
"ANDY FOOD MART 4",-83.594109,32.568806,"355 GA Highway 247 S","","Bonaire","GA","31005","3721","HOUSTON" 
"WAL-MART SUPERCENTER 5392",-82.359818,31.782272,"980 W Parker St","","Baxley","GA","31513","0653","APPLING" 
"WAL-MART SUPERCENTER 5422",-84.568665,30.891647,"500 E Alice St","","Bainbridge","GA","39819","4998","DECATUR" 
"BROOKFIELD GENERAL STORE",-83.391098,31.418303,"2554 HIGHWAY 82 EAST","","BROOKFIELD","GA","31727","","TIFT" 
"NATURAL PRODUCE",-84.380013,33.754372,"209 Edgewood Ave SE","","Atlanta","GA","30303","3012","FULTON" 
"SPEED TRACK",-84.884209,31.04044,"201 W 3rd St","","Donalsonville","GA","39845","1507","SEMINOLE" 
"LA NACIONAL",-84.966515,32.506142,"4403 17th Ave","Ste 1","Columbus","GA","31904","6755","MUSCOGEE" 
"LAKESIDE MART",-83.3368,32.885315,"142 GA Highway 243","","Ivey","GA","31031","3502","WILKINSON" 
"ROCK STORE",-85.064819,34.254337,"3403 Kingston Hwy NE","","Rome","GA","30161","9180","FLOYD" 
"Bilal Halal Meat and Grocery",-84.31163,33.859024,"3408 Clairmont Rd NE","","Atlanta","GA","30319","3720","DEKALB" 
"FLINT RIVER GROCERY 2",-83.735748,32.263638,"2450 PINE STREET","HWY 41","UNADILLA","GA","31091","","DOOLY" 
"TAYLOR'S GROCERY",-82.334549,32.056282,"1698 GA Highway 56 E","","Lyons","GA","30436","5250","TOOMBS" 
"Steakhouse Columbus, LLC",-84.972916,32.512108,"1205 49th St","Ste B","Columbus","GA","31904","5990","MUSCOGEE" 
"TIME SAVER GROCERY",-82.042786,33.507332,"234 Boy Scout Rd","","Augusta","GA","30909","2097","RICHMOND" 
"BIG K MART 4719",-85.163162,34.252274,"102 Hicks Dr SE","","Rome","GA","30161","6064","FLOYD" 
"PUBLIX 1096",-84.726791,34.062687,"6110 Cedarcrest Rd NW","","Acworth","GA","30101","9539","COBB" 
"US FOOD STORE",-81.117966,32.082397,"1315 Augusta Ave","","Savannah","GA","31415","2055","CHATHAM" 
"KP ONE STOP INC",-84.791519,31.754309,"374 Blakely St","","Cuthbert","GA","39840","5317","RANDOLPH" 
"ONE STOP FOOD",-84.188957,31.549103,"1404 W Oakridge Dr","","Albany","GA","31707","5307","DOUGHERTY" 
"Kangaroo Express 3528",-85.519524,34.85791,"190 S Main St","","Trenton","GA","30752","","DADE" 
"CARROLLS SAUSAGE & MEATS",-84.153214,31.609644,"118 Philema Rd Ste D","","Albany","GA","31701","1254","DOUGHERTY" 
"DOLLAR GENERAL 5850",-84.303749,34.88018,"3 Lance St","","Blue Ridge","GA","30513","8019","FANNIN" 
"DOLLAR GENERAL 6927",-83.465172,31.271517,"42 S Robinson St","","Lenox","GA","31637","7100","COOK" 
"DOLLAR GENERAL 6822",-84.782555,33.33099,"575 Pine Rd","","Newnan","GA","30263","7424","COWETA" 
"J & J GROCERY",-83.829796,31.523506,"506 E Martin Luther King Jr Dr","","Sylvester","GA","31791","2637","WORTH" 
"R&D FISH FARMS",-84.405281,32.989414,"1167 Weems Rd","","Molena","GA","30258","3332","PIKE" 
"STOP & SHOP EXPRESS",-84.912621,33.491215,"10 W Highway 5","","Whitesburg","GA","30185","3024","CARROLL" 
"Citgo Food Mart",-84.449577,33.776539,"1990 Donald Lee Hollowell Pkwy NW","","Atlanta","GA","30318","4809","FULTON" 
"DOLLAR GENERAL 5706",-85.142189,34.870636,"8532 Alabama Hwy","","Ringgold","GA","30736","7531","CATOOSA" 
"Fred's Store 1313",-84.156815,33.038811,"790 Highway 341 S","","Barnesville","GA","30204","3766","LAMAR" 
"DOLLAR GENERAL 7441",-84.864716,34.598618,"3044 Pine Chapel Rd NE","","Resaca","GA","30735","6632","GORDON" 
"DOLLAR GENERAL 9136",-84.764664,33.868542,"1670 Hiram Douglasville Hwy","","Hiram","GA","30141","3729","PAULDING" 
"ANDYS FOOD MART 2",-83.641396,32.643299,"1101 N Houston Rd","","Warner Robins","GA","31093","1594","HOUSTON" 
"FAST LANE FOODS",-84.855217,33.851242,"4522 Villa Rica Hwy","","Dallas","GA","30157","6963","PAULDING" 
"NAM CHAU ORIENTAL MARKET",-81.094521,32.024853,"5817 Waters Ave","","Savannah","GA","31404","6241","CHATHAM" 
"SHELL FOOD MART",-84.255898,33.250599,"515 E Broadway St","","Griffin","GA","30223","3638","SPALDING" 
"B P Food Mart",-83.658806,32.639999,"87 Gawin Dr","","Warner Robins","GA","31093","1114","HOUSTON" 
"Shell Food Mart",-83.740364,32.613888,"12005 Watson Blvd","","Byron","GA","31008","5577","PEACH" 
"KROGER STORE 620",-84.461082,34.466434,"115 Bill Wigington Pkwy","","Jasper","GA","30143","6853","PICKENS" 
"AMERIMART 2",-81.49482,31.142582,"1008 Bay St","","Brunswick","GA","31520","7501","GLYNN" 
"ON THE WAY FOOD STORE",-83.402153,33.946224,"1097 Baxter St","","Athens","GA","30606","6313","CLARKE" 
"Circle K 5365",-82.1017,33.484444,"3744 Wheeler Rd","","Augusta","GA","30909","6522","RICHMOND" 
"DOCKSIDE SEAFOOD",-81.370636,31.586439,"6082 Shellman Bluff Rd NE","","Townsend","GA","31331","4644","MCINTOSH" 
"Circle K 5337",-82.031456,33.468994,"2702 Wrightsboro Rd","","Augusta","GA","30904","5345","RICHMOND" 
"Circle K 5367",-82.503059,33.504528,"1786 Washington Rd","","Thomson","GA","30824","7201","MCDUFFIE" 
"Circle K 5375",-82.089767,33.549946,"695 Furys Ferry Rd","","Augusta","GA","30907","9064","COLUMBIA" 
"Circle K Store 5587",-82.156349,33.553829,"4649 Washington Rd","","Evans","GA","30809","3805","COLUMBIA" 
"Circle K 5382",-82.134018,33.486923,"403 S Belair Rd","","Martinez","GA","30907","9602","COLUMBIA" 
"Circle K 3181",-82.009422,33.469322,"2058 Central Ave","","Augusta","GA","30904","4128","RICHMOND" 
"CHERIANS",-84.279732,33.798225,"751 Dekalb Industrial Way","","Decatur","GA","30033","5747","DEKALB" 
"DOLLAR GENERAL 6918",-84.854958,33.920135,"640 W Memorial Dr","","Dallas","GA","30132","4123","PAULDING" 
"DOLLAR GENERAL 6799",-83.897659,34.410217,"5114 Thompson Bridge Rd","","Murrayville","GA","30564","1929","HALL" 
"DOLLAR GENERAL 9588",-84.986504,34.073212,"2335 Highway 113","","Taylorsville","GA","30178","1832","BARTOW" 
"DOLLAR GENERAL 6740",-84.306671,34.248035,"11351 Cumming Hwy","","Canton","GA","30115","8113","CHEROKEE" 
"Schwan's Home Service of Savannah 110460",-81.216499,32.111401,"43 Artley Rd","","Savannah","GA","31408","9547","CHATHAM" 
"PINEAPPLES COUNTRY STORE",-84.794823,31.038254,"5343 GA Highway 45","","Iron City","GA","39859","3213","SEMINOLE" 
"Circle K Store 5374",-82.193924,33.457836,"5101 Wrightsboro Rd","","Grovetown","GA","30813","3050","COLUMBIA" 
"CIRCLE K 3170",-82.081902,33.378605,"2574 Tobacco Rd","","Hephzibah","GA","30815","9009","RICHMOND" 
"CIRCLE K 3171",-81.996994,33.475639,"1739 Walton Way","","Augusta","GA","30904","3705","RICHMOND" 
"CIRCLE K 3174",-82.051109,33.452507,"1947 GORDON HWY","","AUGUSTA","GA","30909","","RICHMOND" 
"CIRCLE K 3173",-81.971336,33.469036,"902 Walton Way","","Augusta","GA","30901","2882","RICHMOND" 
"CIRCLE K 3175",-82.005486,33.397945,"3418 Mike Padgett Hwy","","Augusta","GA","30906","3816","RICHMOND" 
"CIRCLE K 3176",-81.982948,33.456257,"1713 Martin Luther King Jr Blvd","","Augusta","GA","30901","4029","RICHMOND" 
"Circle K Store 3179",-82.02626,33.404343,"3315 Peach Orchard Rd","","Augusta","GA","30906","4876","RICHMOND" 
"CIRCLE K 3180",-82.029961,33.485237,"499 Highland Ave","","Augusta","GA","30909","3742","RICHMOND" 
"BIG GUN FOOD MART",-83.108528,34.342987,"4993 Highway 17","","Canon","GA","30520","2320","FRANKLIN" 
"PLAZA MART #1",-83.641945,32.817776,"2090 Houston Ave","","Macon","GA","31206","1328","BIBB" 
"Rite Aid 11806",-82.400284,32.212208,"1108 E 1st St","","Vidalia","GA","30474","4206","TOOMBS" 
"SHELL FOOD MART",-84.49131,33.786148,"3195 Donald Lee Hollowell Pkwy NW","","Atlanta","GA","30318","4407","FULTON" 
"QUIK SERVE CONVENIENCE STORE",-83.797234,34.286358,"1427 Athens St","","Gainesville","GA","30507","7301","HALL" 
"B & B FOOD MART",-83.282913,30.838654,"801 N Patterson St","","Valdosta","GA","31601","4528","LOWNDES" 
"Dollar General 9826",-82.333046,31.206991,"1803 Knight Ave","","Waycross","GA","31501","","WARE" 
"Dollar General 9830",-85.243027,34.036007,"1164 N Main St","","Cedartown","GA","30125","2039","POLK" 
"FAIRWAY FOODS",-82.734924,31.61179,"9675 US Highway 221 N","","West Green","GA","31567","4205","COFFEE" 
"FORSYTH FRESHWAY",-83.938362,33.039719,"171 N Lee St","","Forsyth","GA","31029","2123","MONROE" 
"WAL-MART SUPERCENTER 3388",-84.025314,33.938168,"1400 LAWRENCEVILLE HWY","","LAWRENCEVILLE","GA","30044","","GWINNETT" 
"CARNICERIA EL TIO",-84.595245,33.815212,"1391 Veterans Memorial Hwy SW","Ste 205","Mableton","GA","30126","3168","COBB" 
"DOLLAR GENERAL 5725",-84.099182,32.558578,"30 W Marion St","","Reynolds","GA","31076","2806","TAYLOR" 
"DOLLAR GENERAL 9815",-85.257988,34.955124,"430 Battlefield Pkwy","","Fort Oglethorpe","GA","30742","3847","CATOOSA" 
"DOLLAR GENERAL 9867",-84.982605,32.511131,"4900 River Rd","","Columbus","GA","31904","5837","MUSCOGEE" 
"HONEST STAR TROPICAL FOOD",-83.995743,33.968945,"140 Hurricane Shoals Rd NW","Ste B","Lawrenceville","GA","30046","4116","GWINNETT" 
"CVS Pharmacy 4545",-83.703209,32.899452,"1615 Forest Hill Rd","","Macon","GA","31210","1602","BIBB" 
"CIRCLE J",-82.11113,33.391563,"3020 Tobacco Rd","","Hephzibah","GA","30815","7008","RICHMOND" 
"FREDS STORE 1263",-81.529114,31.227539,"5485 New Jesup Hwy","","Brunswick","GA","31523","1119","GLYNN" 
"JIM FOOD MART",-83.588371,32.852226,"1920 Jeffersonville Rd","","Macon","GA","31217","4540","BIBB" 
"Carniceria 3 Hermanos",-84.555695,33.933823,"752 Sandtown Rd SW","","Marietta","GA","30008","3046","COBB" 
"JOHNS SERVICE",-82.039536,33.486401,"601 Bransford Rd","","Augusta","GA","30909","3835","RICHMOND" 
"7-11 MINIT STORE",-81.088287,32.040497,"3700 Waters Ave","","Savannah","GA","31404","6209","CHATHAM" 
"CITGO FOOD MART",-84.422401,33.526054,"8425 Highway 85","","Riverdale","GA","30274","4192","CLAYTON" 
"PUBLIX 1019",-84.352974,34.077721,"270 Rucker Rd","","Alpharetta","GA","30004","4045","FULTON" 
"SANDERS FOOD MART",-82.798149,32.987839,"705 E McCarty St","","Sandersville","GA","31082","4778","WASHINGTON" 
"WALGREEN 06327",-84.912842,32.467392,"4808 Buena Vista Rd","","Columbus","GA","31907","5014","MUSCOGEE" 
"WALGREEN 06328",-84.954681,32.472225,"2510 Wynnton Rd","","Columbus","GA","31906","2184","MUSCOGEE" 
"SUPER MERCADO JALISCO 1",-84.18483,33.936066,"2175 Beaver Ruin Rd","","Norcross","GA","30071","3339","GWINNETT" 
"COCHRAN BROS CASH & CARRY",-82.903015,32.537365,"302 1/2 S Jefferson St","","Dublin","GA","31021","5151","LAURENS" 
"KROGER 461",-84.34816,33.758369,"1225 Caroline St NE","","Atlanta","GA","30307","2705","FULTON" 
"FREDS STORE 2823",-85.219864,34.285637,"1916 Redmond Cir NW","","Rome","GA","30165","1320","FLOYD" 
"FREDS STORES 3030",-85.04744,34.844219,"3593 Chattanooga Rd","","Tunnel Hill","GA","30755","9393","WHITFIELD" 
"FREDS STORE 2165",-85.284653,34.704819,"307 W Patton St","","La Fayette","GA","30728","2950","WALKER" 
"FREDS STORE 2038",-84.415359,34.461998,"970 E Church St","","Jasper","GA","30143","1902","PICKENS" 
"FREDS STORE 1213",-84.925903,34.496815,"325 Curtis Pkwy SE","","Calhoun","GA","30701","9203","GORDON" 
"FREDS STORE 2800",-85.110466,34.914207,"53 Legion St","","Ringgold","GA","30736","2369","CATOOSA" 
"FREDS STORE 1830",-83.757919,34.957401,"534 Bell Creek Rd","","Hiawassee","GA","30546","2300","TOWNS" 
"FREDS STORE 1280",-84.769806,34.781281,"1009 N 3rd Ave","","Chatsworth","GA","30705","2119","MURRAY" 
"FREDS STORE 3040",-85.507759,34.874683,"12596 N Main St","","Trenton","GA","30752","","DADE" 
"FREDS STORE 1450",-84.107941,34.412487,"751 Highway 53 E","","Dawsonville","GA","30534","4060","DAWSON" 
"Rite Aid 11694",-84.088821,33.690697,"3140 Turner Hill Rd","","Lithonia","GA","30038","2530","DEKALB" 
"Gwinnett International Farmers Market",-84.133354,33.947155,"3825 Shackleford Rd","","Duluth","GA","30096","8269","GWINNETT" 
"QUICK SHOP",-84.014183,32.288963,"712 Vienna Rd","","Montezuma","GA","31063","2407","MACON" 
"DJ'S",-85.293015,33.74453,"2000 U S Highway 78","","Tallapoosa","GA","30176","1333","HARALSON" 
"HANDY ANDY",-83.549355,33.00309,"500 W Clinton St","","Gray","GA","31032","5300","JONES" 
"DOLLAR GENERAL 1280",-84.503464,34.222664,"1750 Marietta Hwy","Ste 170","Canton","GA","30114","8388","CHEROKEE" 
"QUIKTRIP 797",-84.30899,33.860722,"4040 Buford Hwy NE","","Atlanta","GA","30345","1649","DEKALB" 
"ABC CHRISTIAN BOOKS & NATURAL FOODS",-84.254761,33.765469,"4003 Memorial Dr","","Decatur","GA","30032","1804","DEKALB" 
"Rite Aid 11756",-84.938576,33.733177,"62 Industrial Blvd","","Villa Rica","GA","30180","1545","CARROLL" 
"KROGER 634",-84.753746,34.01236,"8876 DALLAS ACWORTH HWY","","DALLAS","GA","30345","","DEKALB" 
"KROGER 673",-84.824898,33.909828,"457 NATHAN DEAN BLVD","","DALLAS","GA","30093","","GWINNETT" 
"Red Rooster",-83.244057,31.714926,"816 E Central Ave","","Fitzgerald","GA","31750","2605","BEN HILL" 
"CHEVRON FOOD MART",-84.396355,33.681168,"221B Cleveland Ave SW","","Atlanta","GA","30315","8207","FULTON" 
"OCEAN BOUNTY SEAFOOD",-82.339218,32.604073,"420 N Main St","","Swainsboro","GA","30401","3534","EMANUEL" 
"LA REYNA",-83.78054,31.176643,"524 3rd Ave SE","","Moultrie","GA","31768","4800","COLQUITT" 
"DOLLAR GENERAL 5827",-83.5783,34.463909,"155 S Grant St","","Alto","GA","30510","4608","HABERSHAM" 
"DOLLAR GENERAL 5851",-83.709862,32.616833,"3495 US Highway 41 N","","Byron","GA","31008","3710","PEACH" 
"DOLLAR GENERAL 7502",-82.023796,31.663448,"420 S Main St","","Odum","GA","31555","6749","WAYNE" 
"DOLLAR GENERAL 10130",-85.353531,34.471638,"356 Highway 114","","Summerville","GA","30747","1552","CHATTOOGA" 
"ONE STOP . 1",-83.78289,31.178928,"503 1st Ave SE","","Moultrie","GA","31768","4860","COLQUITT" 
"JET MARKET",-83.726143,33.989414,"56 S Broad St","","Winder","GA","30680","2038","BARROW" 
"WALGREEN 07068",-84.595848,34.050575,"4075 Cherokee St NW","","Kennesaw","GA","30144","1278","COBB" 
"SUPERMERCADO EL TAPATIO",-84.121223,33.939178,"1455 PLEASANT HILL RD","","LAWRENCEVILLE","GA","30044","","GWINNETT" 
"WALGREENS 5368",-81.149033,31.981564,"11509 Abercorn St","","Savannah","GA","31419","1901","CHATHAM" 
"WALGREENS 2171",-81.097443,32.025368,"700 E Derenne Ave","","Savannah","GA","31405","6716","CHATHAM" 
"SAVE-A-LOT",-84.769447,34.761101,"500 S 3rd Ave","","Chatsworth","GA","30705","2967","MURRAY" 
"FRIENDLY FOODS",-83.941956,32.45639,"101 Camellia Blvd","","Marshallville","GA","31057","9743","MACON" 
"BORINQUEN FOODS",-84.951385,32.416477,"2001 S LUMPKIN RD","STE 17","Columbus","GA","31903","2729","MUSCOGEE" 
"FOOD LION 2615",-84.916542,34.511356,"1512 RED BUD RD","","CALHOUN","GA","30701","","GORDON" 
"LILLY STORE",-83.877487,32.14735,"233 RAILROAD ST","","LILLY","GA","31051","","DOOLY" 
"ACE  XPRESS FOODMART",-84.444038,33.751122,"1739 Martin Luther King Jr Dr NW","","Atlanta","GA","30314","2227","FULTON" 
"MOZLEY PARK FOODMART",-84.443596,33.751114,"1720 Martin Luther King Jr Dr SW","","Atlanta","GA","30314","2258","FULTON" 
"HOLIDAY FOOD MART",-83.698463,32.659248,"1130 N Houston Lake Blvd","","Warner Robins","GA","31093","3800","HOUSTON" 
"PAN AM SUPERMARKET",-83.355103,33.956188,"151 Nellie B Ave","","Athens","GA","30601","3371","CLARKE" 
"DOLLAR GENERAL 6891",-84.464859,34.220459,"1883 Hickory Flat Hwy","","Canton","GA","30115","1304","CHEROKEE" 
"FRIENDLY FOODS",-82.407814,32.224705,"201 E NORTH ST","","LYONS","GA","30474","3857","TOOMBS" 
"ONE STOP 2",-83.779335,31.154919,"1721 Tallokas Rd","","Moultrie","GA","31768","6393","COLQUITT" 
"BALLARD CROSSING CHEVRON",-84.662468,33.527706,"9165 Roosevelt Hwy","","Palmetto","GA","30268","8631","FULTON" 
"SUPERMERCADO EL TAPATIO 2",-84.188309,33.869678,"4142 Jimmy Carter Blvd","","Norcross","GA","30093","7400","GWINNETT" 
"FREDS STORE 1428",-83.383568,34.978004,"7230 Highway 441 N","","Dillard","GA","30537","","RABUN" 
"FREDS STORE 1233",-84.909416,34.343536,"5132 Joe Frank Harris Pkwy NW","","Adairsville","GA","30103","5328","BARTOW" 
"NEW ALVATON FOOD MART",-84.580612,33.169819,"24610 Highway 85","","Gay","GA","30218","1536","MERIWETHER" 
"WALGREEN 09452",-84.529312,33.806103,"855 Veterans Memorial Hwy SE","","Mableton","GA","30126","2733","COBB" 
"EXPRESS FOOD MART",-83.93837,33.04166,"270 N Lee St","","Forsyth","GA","31029","2124","MONROE" 
"DOLLAR GENERAL 10039",-85.001297,34.453197,"200 Williams Way SW","","Calhoun","GA","30701","","GORDON" 
"FREDS STORE 1068",-82.050568,33.398655,"2416 WINDSOR SPRING RD","","AUGUSTA","GA","30906","","RICHMOND" 
"QUIKTRIP 739",-84.219772,33.880928,"4330 Chamblee Tucker Rd","","Tucker","GA","30084","2105","DEKALB" 
"LA TAMPIQUENA",-83.839859,33.601276,"7134 Highway 278 NE","","Covington","GA","30014","1529","NEWTON" 
"WHITEHOUSE SEAFOOD",-81.678215,30.844055,"1382 Harrietts Bluff Rd","","Woodbine","GA","31569","","CAMDEN" 
"RAINBOW FOOD STORE",-83.440979,33.692799,"4001 Athens Hwy","","Madison","GA","30650","2936","MORGAN" 
"WHOLE FOODS MARKET 10206",-84.381126,33.839916,"43 W Paces Ferry Rd NW","","Atlanta","GA","30305","1301","FULTON" 
"FREDS STORE 1048",-84.596001,33.86314,"3701 Austell Rd SW","","Marietta","GA","30008","8400","COBB" 
"EDGEWOOD FOOD MART",-84.374298,33.754406,"400 Edgewood Ave SE","","Atlanta","GA","30312","1845","FULTON" 
"BUCK CREEK MARKET",-84.02578,33.175568,"4917 HIGH FALLS ROAD","","JACKSON","GA","30233","6610","BUTTS" 
"FREDS STORE 1635",-84.352089,33.620281,"4911 Jonesboro Rd","","Forest Park","GA","30297","3549","CLAYTON" 
"FREDS STORE 2303",-84.629524,32.867756,"1105 Warm Springs Hwy","","Manchester","GA","31816","1167","MERIWETHER" 
"FREDS STORE 1223",-85.047729,33.59111,"1004 BANKHEAD HWY","","CARROLTON","GA","30117","","CARROLL" 
"FREDS STORE 1288",-84.001816,33.684025,"425 SIGMAN RD","","CONYERS","GA","30012","","ROCKDALE" 
"FREDS STORE 3013",-84.333931,32.926075,"1093 Highway 19 N","","Thomaston","GA","30286","2230","UPSON" 
"FREDS STORE 2055",-81.889107,31.610369,"650 W Cherry St","","Jesup","GA","31545","0800","WAYNE" 
"FREDS STORE 1043",-82.458443,31.53023,"104 Williams St","","Alma","GA","31510","3706","BACON" 
"FREDS STORE 1405",-81.429237,31.43255,"1414 US Highway 17","","Darien","GA","31305","3908","MCINTOSH" 
"FREDS STORE 2810",-81.229736,32.277012,"410 S COLUMBIA","A-2","RINCON","GA","31326","","EFFINGHAM" 
"DOLLAR GENERAL 5711",-84.745422,33.336178,"1108 Highway 16 E","","Newnan","GA","30263","5245","COWETA" 
"DOLLAR GENERAL 6930",-85.295258,34.969299,"1408 McFarland Ave","","Rossville","GA","30741","2216","WALKER" 
"DOLLAR GENERAL 6979",-84.12413,34.422169,"30 Howser Mill Rd","","Dawsonville","GA","30534","3451","DAWSON" 
"DOLLAR GENERAL 7451",-83.67662,31.29771,"214 Chafin St","","Norman Park","GA","31771","6046","COLQUITT" 
"DOLLAR GENERAL 10170",-83.785477,34.282066,"2208 Lenox Dr","","Gainesville","GA","30507","1702","HALL" 
"EAST ATLANTA FOOD MART",-84.3685,33.717449,"1362 Boulevard SE","","Atlanta","GA","30315","3016","FULTON" 
"KROGER 674",-82.936569,32.546272,"1100 HILLCREST PKWY","","DUBLIN","GA","31021","","LAURENS" 
"KROGER 636",-84.141388,33.961121,"3093 Steve Reynolds Blvd","","Duluth","GA","30096","","GWINNETT" 
"TAYLORS GROCERY",-84.207466,31.606562,"2401 Dawson Rd Ste T1","","Albany","GA","31707","2361","DOUGHERTY" 
"STOP AND STOP",-84.290161,33.738842,"3125 Glenwood Rd","","Decatur","GA","30032","4171","DEKALB" 
"FREDS STORE 1103",-82.353867,31.766653,"875 S Main St","","Baxley","GA","31513","0131","APPLING" 
"FREDS STORE 1798",-81.615372,31.832247,"767 Frank Cochran Dr","","Hinesville","GA","31313","3997","LIBERTY" 
"FREDS STORE 2993",-81.645592,32.746166,"518 W Ogeechee St","","Sylvania","GA","30467","2231","SCREVEN" 
"FREDS STORE 1478",-82.917084,32.550694,"122 Hillcrest Pkwy","","Dublin","GA","31021","6340","LAURENS" 
"FREDS STORE 1538",-82.876663,32.549389,"705 Central Dr","","East Dublin","GA","31027","7507","LAURENS" 
"FREDS STORE 1758",-81.926239,31.944075,"726 N DOWNING","","GLENNVILLE","GA","30427","","TATTNALL" 
"FREDS STORE 2318",-81.94899,32.806164,"506 US Highway 25 N","","Millen","GA","30442","1453","JENKINS" 
"FREDS STORE 2385",-82.909729,32.070419,"124 8th St","","Helena","GA","31037","9738","TELFAIR" 
"FREDS STORE 1510",-83.188042,32.188007,"103 FOURTH","","EASTMAN","GA","31023","","DODGE" 
"WAYFIELD FOODS 17",-84.501518,33.622032,"3435 ROOSEVELT HWY","","ATLANTA","GA","30349","","FULTON" 
"WAYFIELD FOODS 18",-84.454262,33.688053,"2020 Headland Dr","","East Point","GA","30344","2135","FULTON" 
"CHEVRON FOOD MART",-83.787498,34.281487,"2025 Athens Hwy","","Gainesville","GA","30507","7401","HALL" 
"FOOD DEPOT 40",-84.778076,33.705643,"3696 Highway 5","","Douglasville","GA","30135","","DOUGLAS" 
"FREDS STORE 2320",-84.017509,32.293549,"506 Spaulding Rd Ste H","","Montezuma","GA","31063","1800","MACON" 
"Rite Aid 11735",-84.723862,34.064388,"4486 Cobb Parkway North NW","","Acworth","GA","30101","4262","COBB" 
"STOP & SHOP",-83.92392,33.03463,"461 Tift College Dr","","Forsyth","GA","31029","2328","MONROE" 
"QUICK PICK",-84.542854,33.922665,"1242 Atlanta Rd SE","","Marietta","GA","30060","3452","COBB" 
"GALAXY FOOD CENTER OF CLAXTON",-81.902138,32.168812,"403 N Duval St","","Claxton","GA","30417","5939","EVANS" 
"WAL-MART SUPERCENTER 5482",-83.387238,33.295273,"201 Walmart Dr","","Eatonton","GA","31024","6761","PUTNAM" 
"BIG BEAR SUPERMARKET 2",-84.272125,33.707081,"2849 Candler Rd","","Decatur","GA","30034","1412","DEKALB" 
"FOOD DEPOT #41",-84.193802,33.884026,"4770 Britt Rd","","Norcross","GA","30093","","GWINNETT" 
"MOM & POP CONVENIENCE STORE",-82.000313,33.486816,"2025 Broad St","","Augusta","GA","30904","3024","RICHMOND" 
"J & J FOODS 3",-83.807198,34.329906,"2500 Limestone Pkwy","","Gainesville","GA","30501","2089","HALL" 
"OAKLAND IGA",-84.537437,32.457302,"5419 GA Highway 41 N","","Mauk","GA","31058","2547","MARION" 
"Georgia Giant Foods",-85.049614,31.612272,"204 Eufaula Rd","","Fort Gaines","GA","39851","3130","CLAY" 
"MILL POND TRADING POST",-82.125275,32.544975,"8 George L Smith State Park Rd","","Twin City","GA","30471","3800","EMANUEL" 
"FOOD DEPOT 43",-83.977905,33.627934,"2300 Salem Rd SE","","Conyers","GA","30013","2020","ROCKDALE" 
"CASH & CARRY GROCERY STORE",-84.45108,33.616177,"1881 Southampton Rd","Ste C","College Park","GA","30349","5182","FULTON" 
"PUBLIX 1043",-84.320084,34.019928,"1425 Market Blvd","Ste 600","Roswell","GA","30076","6711","FULTON" 
"Golden Isles Market",-82.608238,31.891485,"305 Lumber City Hwy","","Hazlehurst","GA","31539","5827","JEFF DAVIS" 
"IGUALA MEAT MARKET",-84.380135,33.910973,"215 Northwood Dr NE","Ste 3","Atlanta","GA","30342","4623","FULTON" 
"FOOD DEPOT 44",-83.874023,33.605423,"6169 Highway 278 NW","","Covington","GA","30014","2127","NEWTON" 
"YOUR SUPERMARKET",-83.789619,31.963438,"605B W 16th Ave","","Cordele","GA","31015","2464","CRISP" 
"FREDS STORE 1365",-85.251549,34.021801,"550 N Main St","","Cedartown","GA","30125","2302","POLK" 
"FREDS STORE 2153",-85.020088,33.049347,"299 COMMERCE AVE","","LAGRANGE","GA","30241","","TROUP" 
"FREDS STORE 1228",-84.788277,34.172203,"264 Nelson St","","Cartersville","GA","30120","2862","BARTOW" 
"NICK'S MINITMART",-81.495308,31.160868,"2304 Norwich St","","Brunswick","GA","31520","5535","GLYNN" 
"DOLLAR GENERAL 6545",-85.173279,34.195709,"1 N 4th St SE","","Lindale","GA","30147","1037","FLOYD" 
"FOOD DEPOT 42",-84.636726,33.805229,"3030 Bankhead Hwy","","Austell","GA","30168","4037","COBB" 
"FOOD DEPOT 46",-84.281181,33.577274,"6459 Highway 42","","Rex","GA","30273","1718","CLAYTON" 
"C & B PROCESSING",-83.213623,32.994984,"2961 US Highway 441 S","","Milledgeville","GA","31061","6304","BALDWIN" 
"Dollar General 10040",-83.81015,31.183252,"1575 Camilla Hwy","","Moultrie","GA","31768","2829","COLQUITT" 
"CHEVRON FOOD MART",-83.870224,34.371151,"3585 Thompson Bridge Rd","","Gainesville","GA","30506","1517","HALL" 
"FREDS STORE 1460",-84.8871,31.040791,"409 W 3rd St","","Donalsonville","GA","39845","1511","SEMINOLE" 
"FOOD WAY",-83.266098,30.853319,"1707 N Forrest St","","Valdosta","GA","31601","3326","LOWNDES" 
"SATILLA GROCERY",-81.852852,31.221733,"21300 Highway 82","Ste A","Waynesville","GA","31566","3862","BRANTLEY" 
"DEVIS CONVENIENCE STORE",-84.162582,31.595921,"1400 Palmyra Rd","","Albany","GA","31701","1868","DOUGHERTY" 
"FREDS 1207",-84.203308,30.87534,"429 2nd Ave SE","","Cairo","GA","39828","2729","GRADY" 
"FREDS STORE 3043",-83.949989,30.852047,"2730 E Pinetree Blvd","","Thomasville","GA","31792","4827","THOMAS" 
"FREDS STORE 1698",-82.195473,33.457806,"5107 Wrightsboro Rd","","Grovetown","GA","30813","3050","COLUMBIA" 
"FREDS STORE 1198",-83.760513,32.6478,"214 GA Highway 49 S","","Byron","GA","31008","6937","PEACH" 
"FREDS STORE 1123",-82.039719,33.511681,"2909A Washington Rd","","Augusta","GA","30909","2114","RICHMOND" 
"FREDS STORE 1705",-83.889969,32.553883,"301 E Church St","","Fort Valley","GA","31030","3101","PEACH" 
"FREDS STORE 1803",-83.474922,32.281513,"525 Broad St","","Hawkinsville","GA","31036","1539","PULASKI" 
"FREDS STORE 2140",-82.335915,32.20274,"540 NW Broad St","","Lyons","GA","30436","5542","TOOMBS" 
"FREDS STORE 2213",-82.396935,33.007721,"119 US 1 BY-PASS","","LOUISVILLE","GA","30434","","JEFFERSON" 
"FREDS STORE 2300",-83.668037,32.81443,"1540 Eisenhower Pkwy","","Macon","GA","31206","3153","BIBB" 
"FREDS STORE 2745",-82.119713,32.084995,"139 W Brazell St","","Reidsville","GA","30453","","TATTNALL" 
"TARGET STORE T-1164",-84.6036,33.8536,"4125 Austell Rd","","Austell","GA","30106","1836","COBB" 
"TARGET STORE T-981",-84.572083,34.007469,"740 EARNEST W BARRETT PKY NW","","KENNESAW","GA","30144","","COBB" 
"TARGET STORE T-1106",-84.460854,34.036606,"3040 Shallowford Rd","","Marietta","GA","30062","1252","COBB" 
"TARGET STORE T-1165",-84.625839,33.946144,"2535 Dallas Hwy SW","","Marietta","GA","30064","2543","COBB" 
"TARGET STORE T-1223",-84.760078,33.395866,"555 Highway 34 E","","Newnan","GA","30265","1045","COWETA" 
"TARGET STORE T-778",-84.438904,33.48045,"107 Pavilion Pkwy","","Fayetteville","GA","30214","4098","FAYETTE" 
"TARGET STORE T-970",-84.288307,34.047874,"6000 N Point Pkwy","","Alpharetta","GA","30022","3006","FULTON" 
"TARGET STORE T-1486",-84.327011,33.827015,"2400 N Druid Hills Rd NE","","Atlanta","GA","30329","3211","DEKALB" 
"TARGET STORE T-1964",-84.346718,33.758347,"1275 Caroline St NE","","Atlanta","GA","30307","2705","FULTON" 
"TARGET STORE T-1206",-83.981316,34.068813,"3205 WOODWARD CROSSING BLVD","","BUFORD","GA","30519","","GWINNETT" 
"TARGET STORE T-749",-84.1866,34.015358,"5950 STATE BRIDGE RD","","DULUTH","GA","30097","","FULTON" 
"TARGET STORE T-747",-84.01902,33.970016,"875 Lawrenceville Suwanee Rd","","Lawrenceville","GA","30043","5484","GWINNETT" 
"TARGET STORE T-982",-84.23204,33.949146,"3200 HOLCOMB BRIDGE RD","","NORCROSS","GA","30092","","GWINNETT" 
"TARGET STORE T-917",-84.013504,33.875477,"1905 SCENIC HWY N","","SNELLVILLE","GA","30078","","GWINNETT" 
"TARGET STORE T-1179",-84.970642,32.532108,"1591 BRADLEY PARK DR","","COLUMBUS","GA","31904","","MUSCOGEE" 
"TARGET STORE T-1090",-82.079849,33.489864,"235 Robert C Daniel Jr Pkwy","","Augusta","GA","30909","0800","RICHMOND" 
"FREDS STORE 2308",-82.04351,32.395981,"978 SE Broad St","","Metter","GA","30439","3933","CANDLER" 
"FREDS STORE 3008",-81.7817,32.434994,"5 College Plz","","Statesboro","GA","30458","4928","BULLOCH" 
"Rite Aid 11788",-84.388641,33.818817,"2345 Peachtree Rd NE","","Atlanta","GA","30305","4147","FULTON" 
"FREDS STORE 2103",-81.677109,30.798864,"925 E King Ave","","Kingsland","GA","31548","6330","CAMDEN" 
"3 WAY CORNER STORE",-82.351662,31.79125,"751 N Boulevard","","Baxley","GA","31513","0587","APPLING" 
"FREDS STORE 1013",-82.067459,33.467323,"1511 N Leg Rd","","Augusta","GA","30909","5500","RICHMOND" 
"FREDS STORE 1148",-84.550545,30.903757,"1602 E Shotwell St Ste C","","Bainbridge","GA","39819","4379","DECATUR" 
"BVM FOOD STORE",-84.327759,31.331394,"468 State Route 91 N","","Newton","GA","39870","9503","BAKER" 
"FREDS STORE 2690",-84.151741,31.122896,"290 W Railroad St S","","Pelham","GA","31779","1645","MITCHELL" 
"HANDYWAY FOOD STORE",-84.569366,30.953575,"1572 Newton Rd","","Bainbridge","GA","39817","7647","DECATUR" 
"FREDS STORE 3205",-82.740463,33.744957,"923 N Bypass E","","Washington","GA","30673","5346","WILKES" 
"FREDS STORES 3068",-83.30629,34.570412,"1111 Big A Rd S","","Toccoa","GA","30577","3861","STEPHENS" 
"FREDS STORE 1153",-82.234177,31.310604,"3764 US Highway 84","","Blackshear","GA","31516","1853","PIERCE" 
"FREDS STORES 1248",-83.516884,34.603134,"200 E Louise St Unit B","","Clarkesville","GA","30523","6030","HABERSHAM" 
"FREDS STORE 1358",-84.785942,31.771181,"101 N Webster St","","Cuthbert","GA","39840","2522","RANDOLPH" 
"FREDS STORE 3065",-83.502983,31.46645,"1442 Tift Ave N","","Tifton","GA","31794","3545","TIFT" 
"FREDS STORE 2148",-83.204697,30.684849,"365 Lakes Blvd","","Lake Park","GA","31636","5083","LOWNDES" 
"FREDS STORE 1025",-84.176094,31.590631,"1001 N Slappey Blvd","","Albany","GA","31701","1420","DOUGHERTY" 
"FREDS STORE 1325",-81.902107,32.16885,"413 N Duval St","","Claxton","GA","30417","5939","EVANS" 
"CARNICERIA LA PERLA",-83.983376,33.942654,"316 Grayson Hwy","","Lawrenceville","GA","30046","7177","GWINNETT" 
"CLYDES MARKET 3",-81.592537,31.846201,"203 W Oglethorpe Hwy","","Hinesville","GA","31313","3614","LIBERTY" 
"STOP AND SHOP",-83.243813,31.205236,"500 E McPherson Ave","","Nashville","GA","31639","2255","BERRIEN" 
"R and J Produce",-81.630119,31.823172,"1137 GA Highway 196 W","Suite C","Hinesville","GA","31313","8011","LIBERTY" 
"TARGET STORE T-2036",-84.340897,33.929005,"100 Perimeter Ctr Place","","Atlanta","GA","30346","1223","DEKALB" 
"TARGET STORE T-2056",-84.173813,34.094078,"2625 Peachtree Pkwy","","Suwanee","GA","30024","1048","GWINNETT" 
"CVS Pharmacy 7312",-84.193787,33.811958,"1140 N Hairston Rd","","Stone Mountain","GA","30083","5800","DEKALB" 
"Dollar General 6163",-84.591019,33.478912,"989 Senoia Rd","","Tyrone","GA","30290","2067","FAYETTE" 
"Dollar General 9785",-84.862595,32.870907,"9078 Hamilton Rd","","Pine Mountain","GA","31822","","HARRIS" 
"CVS Pharmacy 6956",-81.597847,31.840958,"114 E General Screven Way","","Hinesville","GA","31313","3014","LIBERTY" 
"Fuller Superette",-85.023773,33.025341,"900 Hamilton Rd","","Lagrange","GA","30241","5445","TROUP" 
"DASH FOOD MART",-81.504066,31.182146,"3900 Newcastle St","","Brunswick","GA","31520","2501","GLYNN" 
"The Yellow Store",-84.349594,33.709126,"1645 Moreland Ave SE","","Atlanta","GA","30316","3179","FULTON" 
"MARATHON FOOD MART",-84.494225,34.258389,"11 Mill St","","Canton","GA","30114","2074","CHEROKEE" 
"DISCOUNT CORNER STORE",-82.340714,31.776049,"554 E Parker St","","Baxley","GA","31513","0026","APPLING" 
"Dollar General 10178",-82.589172,32.375481,"400 Main St E","","Soperton","GA","30457","1131","TREUTLEN" 
"Dollar General 10193",-82.156502,32.583599,"2758 US Highway 80 E","","Twin City","GA","30471","5142","EMANUEL" 
"WAL-MART SUPERCENTER 5390",-84.518509,33.946796,"210 Cobb Pkwy S","","Marietta","GA","30060","6509","COBB" 
"LA LUPITA MEXICAN TIENDA",-82.850723,31.519857,"1110 Peterson Ave N","","Douglas","GA","31533","2830","COFFEE" 
"VALS DISCOUNT WHOLESALE",-84.529762,33.87265,"3320 S Cobb Dr SE","Ste D","Smyrna","GA","30080","4177","COBB" 
"KROGER 449",-84.131485,33.841621,"1227 ROCKBRIDGE RD","","STONE MOUNTAIN","GA","30087","","DEKALB" 
"Northside Groceries",-84.40274,33.752899,"48 Northside Dr SW","","Atlanta","GA","30313","1427","FULTON" 
"FREDS STORE 1138",-84.225479,32.073387,"604 E Forsyth St","","Americus","GA","31709","3717","SUMTER" 
"FREDS STORE 1195",-84.950607,31.37229,"11510 Columbia Rd","Ste H","Blakely","GA","39823","","EARLY" 
"FREDS STORE 2130",-83.103127,34.422726,"11747 Augusta Rd","","Lavonia","GA","30553","1284","FRANKLIN" 
"FREDS STORE 2168",-83.073471,31.036049,"512 S Valdosta Rd","","Lakeland","GA","31635","1564","LANIER" 
"FREDS STORE 1245",-83.3246,32.429131,"908 Dykes St NE","","Cochran","GA","31014","","BLECKLEY" 
"FREDS STORE 1818",-84.290413,33.27124,"1424 N Expressway","Ste 146","Griffin","GA","30223","1753","SPALDING" 
"FREDS STORE 1415",-84.438705,31.761816,"839 Forrester Dr SE","","Dawson","GA","39842","2044","TERRELL" 
"FREDS STORE 2700",-83.572281,30.785484,"1315A W Screven St","","Quitman","GA","31643","1819","BROOKS" 
"FREDS STORE 2843",-83.12471,34.280296,"411 Smith St","","Royston","GA","30662","3917","FRANKLIN" 
"FREDS STORE 1078",-83.418617,31.123508,"1014 S Hutchinson Ave","","Adel","GA","31620","5100","COOK" 
"FREDS STORE 2995",-83.835426,31.527502,"204 E Kelly St","","Sylvester","GA","31791","2135","WORTH" 
"Mickeys Food Store",-83.04689,31.339928,"49 Peterson St S","","Willacoochee","GA","31650","","ATKINSON" 
"FREDS STORE 3305",-83.734642,33.995579,"189 W ATHENS ST","","WINDER","GA","30680","","BARROW" 
"FREDS STORE 1015",-83.650108,31.707106,"316 E Washington Ave","","Ashburn","GA","31714","5222","TURNER" 
"FOOD LION 1181",-81.124359,31.996233,"8914 White Bluff Rd","","Savannah","GA","31406","4604","CHATHAM" 
"FREDS STORE 1328",-83.442009,34.185638,"185 S Elm St","","Commerce","GA","30529","3206","JACKSON" 
"FREDS STORE 1473",-84.724098,33.751259,"5793 Fairburn Rd","","Douglasville","GA","30134","2564","DOUGLAS" 
"DOLLAR GENERAL 10046",-84.488235,30.77054,"448 N Griffin Ave","","Attapulgus","GA","39815","2532","DECATUR" 
"SUPER SAVE FOODS",-84.222183,33.763767,"4100 Redan Rd","","Stone Mountain","GA","30083","5038","DEKALB" 
"SANDERSVILLE IGA",-82.808647,32.972778,"648 S Harris St","","Sandersville","GA","31082","2821","WASHINGTON" 
"WALGREEN 09271",-84.365562,33.538349,"7935 Tara Blvd","","Jonesboro","GA","30236","2205","CLAYTON" 
"FREDS STORE 1273",-84.945404,32.480103,"1900 Auburn Ave","","Columbus","GA","31906","1706","MUSCOGEE" 
"FREDS STORE 2425",-83.251442,31.197027,"719 S Davis St","","Nashville","GA","31639","2618","BERRIEN" 
"PUBLIX 1118",-83.998749,33.685471,"1591 Highway 20 NE","","Conyers","GA","30012","3834","ROCKDALE" 
"PUBLIX 1010",-84.39756,33.792435,"1380 Atlantic Dr NW","Ste 14135","Atlanta","GA","30363","1144","FULTON" 
"MATHEWS MARKET PLACE",-84.033867,33.709579,"1 Frontier Dr NW","Ste 101","Conyers","GA","30012","3106","ROCKDALE" 
"FREDS STORE 1350",-83.783401,31.965801,"102E W 14th Ave","","Cordele","GA","31015","1447","CRISP" 
"FREDS STORE 1468",-82.831367,31.492899,"813 Bowens Mill Rd SE","","Douglas","GA","31533","1305","COFFEE" 
"QUICK STOP N SHOP",-83.332596,34.577366,"156 W Currahee St","","Toccoa","GA","30577","2604","STEPHENS" 
"FOOD DEPOT 39",-84.575462,34.08498,"5530 Bells Ferry Rd","","Acworth","GA","30102","2526","CHEROKEE" 
"QUICK STOP 94",-81.182228,32.044224,"4801 Ogeechee Rd","","Savannah","GA","31405","2532","CHATHAM" 
"ETON GENERAL STORE",-84.762787,34.824459,"25 OLD CCC CAMP RD","","ETON","GA","30724","","MURRAY" 
"KROGER 645",-81.265732,31.995951,"5720 OGEECHEE RD","","CHATHAM","GA","31419","","CHATHAM" 
"DOLLAR GENERAL 10145",-84.146774,33.717663,"6633 Covington Hwy","","Lithonia","GA","30058","4813","DEKALB" 
"DOLLAR GENERAL 10168",-82.522812,32.024773,"317 S 1st St","","Uvalda","GA","30473","3155","MONTGOMERY" 
"DOLLAR GENERAL 10189",-84.085335,31.955347,"125 Seaboard St","","Leslie","GA","31764","2681","SUMTER" 
"DOLLAR GENERAL 10226",-84.093025,34.876701,"7055 Copperhead Rd","","Blairsville","GA","30512","3459","UNION" 
"DOLLAR GENERAL 10314",-83.865089,31.016411,"4035 N Pine St","","Coolidge","GA","31738","3215","THOMAS" 
"Rite Aid 11701",-84.079292,33.976891,"1900 Duluth Hwy","","Lawrenceville","GA","30043","5013","GWINNETT" 
"CARNICERIA GARCIA 5",-84.35762,33.632908,"4460 Jonesboro Rd","","Forest Park","GA","30297","4314","CLAYTON" 
"RED & EDS",-84.800468,33.335701,"874 Corinth Rd","","Newnan","GA","30263","5168","COWETA" 
"WALGREEN 06394",-82.09478,33.510689,"3900 Washington Rd","","Martinez","GA","30907","2322","COLUMBIA" 
"WALGREEN 06395",-82.140625,33.507477,"4470 Columbia Rd","","Martinez","GA","30907","4263","COLUMBIA" 
"WALGREEN 06632",-82.027008,33.408264,"3204 Peach Orchard Rd","","Augusta","GA","30906","4862","RICHMOND" 
"WALGREEN 07772",-82.089539,33.549347,"672 Furys Ferry Rd","","Martinez","GA","30907","8945","COLUMBIA" 
"SHREE GANESH FOOD MART",-82.053383,33.426037,"3105 Deans Bridge Rd","","Augusta","GA","30906","3343","RICHMOND" 
"FLOWERS DISCOUNT BAKERY STORE",-84.195023,33.482002,"717 Oak Grove Rd","","McDonough","GA","30253","","HENRY" 
"DEANS FOOD MART",-84.202507,33.786385,"4687 Rockbridge Rd","Ste 1","Stone Mountain","GA","30083","4281","DEKALB" 
"MR B'S MARKET",-83.277946,30.847368,"1405 N Lee St","","Valdosta","GA","31601","3307","LOWNDES" 
"Dollar General 10385",-81.788734,32.456085,"300 Northside Dr W","","Statesboro","GA","30458","5302","BULLOCH" 
"FREDS STORE 1393",-83.236679,34.039303,"15 Colbert Business Pkwy W","","Colbert","GA","30628","2462","MADISON" 
"FREDS STORE 2893",-82.322716,32.585293,"501 S Main St Ste 1","","Swainsboro","GA","30401","6137","EMANUEL" 
"FREDS STORE 1423",-84.932381,34.764133,"2501 Murray Ave","","Dalton","GA","30721","4344","WHITFIELD" 
"WAVERLY MINIT MART",-81.725914,31.093916,"24295 US Highway 17","","Waverly","GA","31565","1905","CAMDEN" 
"J C FOOD STORE",-82.050446,33.43132,"2451 Golden Camp Rd","","Augusta","GA","30906","5515","RICHMOND" 
"CVS Pharmacy 4506",-84.950882,34.505909,"402 N Wall St","","Calhoun","GA","30701","1944","GORDON" 
"LAWRENCEVILLE SEAFOOD",-84.086212,33.93792,"2785 Cruse Rd","Ste 4","Lawrenceville","GA","30044","2649","GWINNETT" 
"CITGO FOOD MART",-84.188156,33.867825,"4125 Jimmy Carter Blvd","","Norcross","GA","30093","5212","GWINNETT" 
"DEAN GROCERIES",-82.89196,34.096058,"1175 Frances Dean Dr","","Elberton","GA","30635","2016","ELBERT" 
"SPRINT FOODS 6",-83.688202,32.785568,"2075 Rocky Creek Rd","","Macon","GA","31206","3903","BIBB" 
"EL MERCADITO",-84.341515,33.472385,"1544 Tara Rd Ste J","","Jonesboro","GA","30238","6509","CLAYTON" 
"G NEZ EXPRESS",-83.656563,31.700666,"507 S Jefferson St","","Ashburn","GA","31714","5829","TURNER" 
"WALGREEN 09630",-84.539909,33.568798,"4617 Jonesboro Rd","","Union City","GA","30291","2048","FULTON" 
"LARRYS QUICK STOP",-84.418655,33.680813,"2717 Sylvan Rd","","East Point","GA","30344","3717","FULTON" 
"WALGREEN 06372",-84.448448,33.466,"780 Glynn St N","","Fayetteville","GA","30214","1193","FAYETTE" 
"WALGREEN 06897",-84.339363,33.600407,"5675 Jonesboro Rd","","Lake City","GA","30260","3804","CLAYTON" 
"RICHMOND HILL MARKET",-82.034744,33.432388,"512 Richmond Hill Rd W","","Augusta","GA","30906","1102","RICHMOND" 
"J K FOOD MART",-83.264725,30.871784,"1701 Northside Dr","","Valdosta","GA","31602","","LOWNDES" 
"WAL-MART SUPERCENTER 3389",-84.043472,33.806259,"3435 Centerville Hwy","","Snellville","GA","30039","6117","GWINNETT" 
"SUSIE Q'S",-83.931503,30.881638,"13091 US Highway 319 N","","Thomasville","GA","31757","2136","THOMAS" 
"NEW DELHI IMPORTS",-84.147171,33.951138,"4025 Satellite Blvd","Ste J","Duluth","GA","30096","5500","GWINNETT" 
"WAL-MART SUPERCENTER 3403",-84.730553,33.932957,"3615 Marietta Hwy","","Dallas","GA","30157","9472","PAULDING" 
"WALGREEN 07848",-81.485771,31.194458,"4575 Altama Ave","","Brunswick","GA","31520","3008","GLYNN" 
"WALGREEN 07960",-84.03434,33.968636,"1065 Duluth Hwy","","Lawrenceville","GA","30043","5216","GWINNETT" 
"WALGREEN 09155",-83.862473,34.221268,"3414 Mundy Mill Rd","","Gainesville","GA","30507","8215","HALL" 
"KT'S PLACE",-82.343643,32.610817,"636 N Main St","","Swainsboro","GA","30401","3715","EMANUEL" 
"LEONS FOOD MART",-84.153854,34.298767,"5410 Matt Hwy","","Cumming","GA","30028","3104","FORSYTH" 
"GINGER'S GROCERY",-84.913757,34.503208,"1600 Dews Pond Rd NE","","Calhoun","GA","30701","4740","GORDON" 
"WALGREEN 06209",-84.246078,33.500168,"1855 Hudson Bridge Rd","","Stockbridge","GA","30281","5000","HENRY" 
"WALGREEN 09257",-81.764908,32.440079,"516 Northside Dr E","","Statesboro","GA","30458","4841","BULLOCH" 
"CIRCLE W SHOPPETTE",-84.98053,33.526787,"3686 N Highway 16","","Whitesburg","GA","30185","2816","CARROLL" 
"Dollar General 10229",-84.005516,34.948162,"2665 Ivylog Rd","","Blairsville","GA","30512","1435","UNION" 
"Dollar General 10287",-84.018784,33.176907,"15 Towaliga River Dr","","Jackson","GA","30233","6647","BUTTS" 
"DOLLAR GENERAL 10399",-84.928848,32.524055,"3855 Miller Rd Ste B","","Columbus","GA","31909","4778","MUSCOGEE" 
"SILVER CITY CITGO",-84.117653,34.334915,"6623 Highway 9 S","","Dawsonville","GA","30534","6556","DAWSON" 
"TARGET STORE T-2027",-82.121056,33.526512,"4223 Washington Rd","","Evans","GA","30809","3069","COLUMBIA" 
"GARVEY WEST INDIAN GROCERY & RESTAURANT",-84.629166,33.870106,"2575 Whitehaven Dr SW","Ste 120","Marietta","GA","30064","4569","COBB" 
"FARM HOUSE PRODUCE",-83.914787,34.521793,"4690 Highway 52 E","","Dahlonega","GA","30533","5694","LUMPKIN" 
"QUICK MART",-83.322128,34.553406,"953 Mize Rd","","Toccoa","GA","30577","5846","STEPHENS" 
"DAVID'S CRAB HOUSE",-81.103668,32.060146,"1820 Montgomery St","","Savannah","GA","31401","8035","CHATHAM" 
"QUICK MART 2",-83.242294,31.214277,"708 Old Coffee Rd","","Nashville","GA","31639","1602","BERRIEN" 
"QUICK MART 1",-83.253593,31.208282,"224 Tifton Rd","","Nashville","GA","31639","3702","BERRIEN" 
"SUSIE Q'S 2",-83.935814,30.876032,"12609 US Highway 319 N","","Thomasville","GA","31757","2445","THOMAS" 
"ABC COUNTRY SHOPPE",-84.985802,34.701817,"3356 S Dixie Rd","","Dalton","GA","30720","7650","WHITFIELD" 
"QUICK STOP 2",-84.021751,31.262276,"110 W Broad St","","Sale City","GA","31784","3521","MITCHELL" 
"LA PROVIDENCIA",-84.953316,34.762321,"737 Riverbend Rd","","Dalton","GA","30721","4789","WHITFIELD" 
"FLASH FOODS 290",-82.408325,32.224945,"101 North St E","","Vidalia","GA","30474","3855","TOOMBS" 
"AUGUSTA IGA 5055",-82.077179,33.419239,"3355 DEANS BRIDGE RD","","AUGUSTA","GA","30906","","RICHMOND" 
"Wilkes Custom Cut Meats",-84.020973,33.856144,"2304 Scenic Hwy S","Suite F","Snellville","GA","30078","3151","GWINNETT" 
"A&D MEAT & POULTRY",-84.099922,33.784416,"7245 Rockbridge Rd","Ste 1700","Lithonia","GA","30058","8618","DEKALB" 
"Rite Aid 11836",-82.091187,33.482319,"3650 Wheeler Rd","","Augusta","GA","30909","6520","RICHMOND" 
"WALGREEN 01646",-84.55201,33.951874,"23 S Marietta Pkwy SW","","Marietta","GA","30064","3288","COBB" 
"WALGREEN 07396",-84.420952,34.176895,"6111 Hickory Flat Hwy","","Canton","GA","30115","7253","CHEROKEE" 
"Dollar General 10146",-83.496071,30.945047,"8439 Valdosta Hwy","","Morven","GA","31638","2410","BROOKS" 
"WALGREEN 09277",-82.336502,31.20573,"1740 Memorial Dr","","Waycross","GA","31501","1044","WARE" 
"WALGREEN 09643",-83.623352,32.593857,"102 Russell Pkwy","","Warner Robins","GA","31088","6165","HOUSTON" 
"BUCKTOWN GROCERY",-85.29071,33.474842,"2875 S Highway 100","","Bowdon","GA","30108","2831","CARROLL" 
"WALGREEN 09706",-83.815063,34.309814,"472 S Enota Dr NE","","Gainesville","GA","30501","2548","HALL" 
"TEXACO FOOD MART",-84.244186,33.846973,"4271 Lavista Rd","","Tucker","GA","30084","5317","DEKALB" 
"WAL-MART SUPERCENTER 3709",-84.310425,33.7188,"2427 Gresham Rd SE","","Atlanta","GA","30316","3709","FULTON" 
"WAL-MART SUPERCENTER 3750",-83.61055,32.592491,"502 Booth Rd","","Warner Robins","GA","31088","3422","HOUSTON" 
"TEXACO FOOD MART",-84.677338,33.740097,"2400 Fairburn Rd","","Douglasville","GA","30135","1439","DOUGLAS" 
"ORIENTIAL MARKET PLACE",-84.730247,33.399166,"1485 Highway 34 E","Ste 3C","Newnan","GA","30265","6408","COWETA" 
"CVS Pharmacy 2544",-84.60141,33.424316,"101 Lexington Cir","","Peachtree City","GA","30269","6845","FAYETTE" 
"CVS Pharmacy 3760",-85.249336,34.953522,"887 Battlefield Pkwy","","Fort Oglethorpe","GA","30742","3900","CATOOSA" 
"CVS Pharmacy 3767",-84.943459,34.833134,"2791 Cleveland Hwy","","Dalton","GA","30721","8163","WHITFIELD" 
"CVS Pharmacy 3770",-85.204788,34.266724,"911 Shorter Ave SW","","Rome","GA","30165","4164","FLOYD" 
"CVS Pharmacy 4203",-83.78894,31.167631,"1027 S Main St","","Moultrie","GA","31768","5438","COLQUITT" 
"CVS Pharmacy 4267",-83.780746,31.963562,"214 E 16th Ave","","Cordele","GA","31015","1622","CRISP" 
"CVS Pharmacy 4404",-84.264359,33.235004,"736 S Hill St","","Griffin","GA","30224","4831","SPALDING" 
"CVS Pharmacy 4502",-85.167305,34.228859,"1915 Maple Ave SW","","Rome","GA","30161","6568","FLOYD" 
"CVS Pharmacy 4514",-83.507164,31.459715,"111 8th St E","","Tifton","GA","31794","4099","TIFT" 
"CVS Pharmacy 4515",-83.945702,30.852377,"14857 US Highway 19 S","","Thomasville","GA","31792","4870","THOMAS" 
"CVS Pharmacy 4532",-85.108109,33.563942,"2125 Maple St","","Carrollton","GA","30117","5581","CARROLL" 
"DJ'S GROCERY 2",-84.671127,33.508118,"504 Main St","","Palmetto","GA","30268","1428","FULTON" 
"FOOD DEPOT 45",-84.173897,33.62315,"2600 Highway 155","","STOCKBRIDGE","GA","30281","","HENRY" 
"CVS Pharmacy 4534",-83.282486,30.860395,"2205 N Ashley St","","Valdosta","GA","31602","2612","LOWNDES" 
"CVS Pharmacy 4535",-84.567497,30.904022,"817 E Shotwell St","","Bainbridge","GA","39819","4145","DECATUR" 
"CVS Pharmacy 4540",-85.070099,33.032604,"1861 Roanoke Rd","Ste K","Lagrange","GA","30240","3850","TROUP" 
"CVS Pharmacy 4552",-82.860626,31.509212,"912 Ward St W","","Douglas","GA","31533","3516","COFFEE" 
"CVS Pharmacy 4560",-84.136986,31.550634,"1509 Radium Springs Rd","","Albany","GA","31705","4021","DOUGHERTY" 
"MAYFIELD MINI MART",-82.862328,33.31683,"7711 Powelton Church Rd","","Sparta","GA","31087","3784","HANCOCK" 
"CVS Pharmacy 4569",-84.223083,31.609947,"609 N Westover Blvd","","Albany","GA","31707","2188","DOUGHERTY" 
"CVS Pharmacy 4576",-85.285713,33.744099,"73 E Atlanta St","","Tallapoosa","GA","30176","1293","HARALSON" 
"CVS Pharmacy 4577",-84.790703,31.760185,"800 Blakely St","","Cuthbert","GA","39840","5329","RANDOLPH" 
"CVS Pharmacy 4579",-84.950073,32.426029,"1627 S Lumpkin Rd","","Columbus","GA","31903","2720","MUSCOGEE" 
"CVS Pharmacy 4582",-85.348969,34.477734,"9849 Rome Blvd","","Summerville","GA","30747","1585","CHATTOOGA" 
"CVS Pharmacy 4603",-83.252823,31.706091,"816 S Grant St","","Fitzgerald","GA","31750","3703","BEN HILL" 
"CVS Pharmacy 4671",-84.945641,32.478817,"3127 Macon Rd","","Columbus","GA","31906","1716","MUSCOGEE" 
"CVS Pharmacy 4674",-84.92672,32.54995,"7042 MOON RD","","COLUMBUS","GA","31909","","MUSCOGEE" 
"CVS Pharmacy 4677",-84.959297,32.49847,"3617 HILTON AVE","","COLUMBUS","GA","31904","","MUSCOGEE" 
"CVS Pharmacy 4678",-83.510201,31.472828,"320 East 20th Street","","Tifton","GA","31794","3542","TIFT" 
"CVS Pharmacy 4679",-84.98275,32.507187,"625 Manchester Expy","","Columbus","GA","31904","6201","MUSCOGEE" 
"CVS Pharmacy 4709",-84.582993,33.565105,"77 SW Broad St","","Fairburn","GA","30213","1339","FULTON" 
"CVS Pharmacy 4717",-84.467972,33.752068,"2429 Martin Luther King Jr Dr SW","","Atlanta","GA","30311","1713","FULTON" 
"CVS Pharmacy 4736",-84.370872,33.555904,"7267 Tara Blvd","","Jonesboro","GA","30236","1901","CLAYTON" 
"CVS Pharmacy 4760",-84.453796,33.457626,"480 Glynn St N","","Fayetteville","GA","30214","1192","FAYETTE" 
"CVS Pharmacy 5356",-85.252312,34.020535,"511 N Main St","","Cedartown","GA","30125","2301","POLK" 
"CVS Pharmacy 5395",-84.461624,33.722477,"2237 Cascade Rd SW","","Atlanta","GA","30311","2832","FULTON" 
"CVS Pharmacy 5417",-85.16436,34.255661,"1201 Turner McCall Blvd SE","","Rome","GA","30161","5278","FLOYD" 
"CVS Pharmacy 5606",-83.837425,31.530674,"104 W Franklin St","","Sylvester","GA","31791","7231","WORTH" 
"CVS Pharmacy 5618",-84.937248,31.375345,"12246 Columbia St","Ste E","Blakely","GA","39823","2560","EARLY" 
"CVS Pharmacy 5622",-84.77829,33.910091,"495 Marietta Hwy","","Dallas","GA","30157","5723","PAULDING" 
"CVS Pharmacy 5637",-84.903397,33.729294,"736 HWY 78 W","","VILLA RICA","GA","30180","","CARROLL" 
"CVS Pharmacy 5673",-84.019333,32.293476,"501 Spaulding Rd","","Montezuma","GA","31063","1803","MACON" 
"CVS Pharmacy 5682",-84.138802,33.447651,"2 N Zack Hinton Pkwy","","McDonough","GA","30253","2317","HENRY" 
"CVS Pharmacy 5683",-84.16684,33.046028,"622 Veterans Pkwy","","Barnesville","GA","30204","1545","LAMAR" 
"CVS Pharmacy 5765",-85.261208,33.53664,"100 Oak St","","Bowdon","GA","30108","1412","CARROLL" 
"CVS Pharmacy 6012",-84.777161,34.027935,"51 SEVEN HILLS BLVD","","DALLAS","GA","30132","","PAULDING" 
"CVS Pharmacy 7064",-84.282814,33.543503,"5095 Mount Zion Pkwy","","Stockbridge","GA","30281","7825","HENRY" 
"CVS Pharmacy 7068",-84.585945,33.490288,"100 Carriage Oaks Dr","","Tyrone","GA","30290","1567","FAYETTE" 
"CVS Pharmacy 7214",-84.705933,33.404625,"2305 Highway 34 E","","Newnan","GA","30265","1329","COWETA" 
"CVS Pharmacy 7216",-84.819221,33.386734,"239 Temple Ave","","Newnan","GA","30263","1368","COWETA" 
"CVS Pharmacy 7227",-84.798935,34.78278,"1420 Highway 76","","Chatsworth","GA","30705","6392","MURRAY" 
"CVS Pharmacy 7273",-84.494438,34.243046,"129 Marietta Hwy","","Canton","GA","30114","2304","CHEROKEE" 
"CVS Pharmacy 7615",-85.029549,33.040417,"300 N Morgan St","","Lagrange","GA","30240","2806","TROUP" 
"CVS Pharmacy 7666",-84.904236,32.536575,"5181 Warm Springs Rd","","Columbus","GA","31909","4159","MUSCOGEE" 
"CVS Pharmacy 7706",-83.924568,33.034721,"430 Tift College Dr","","Forsyth","GA","31029","2315","MONROE" 
"CVS Pharmacy 7755",-85.512527,34.869076,"5431 Highway 136","","Trenton","GA","30752","2900","DADE" 
"CVS Pharmacy 7888",-84.420044,34.176495,"6120 Hickory Flat Hwy","","Canton","GA","30115","7252","CHEROKEE" 
"CBS CONVENIENCE STORE",-84.829857,33.359013,"550 Smokey Rd","","Newnan","GA","30263","3067","COWETA" 
"CIRCLE K 5378",-82.082893,33.499702,"602 Scott Nixon Memorial Dr","","Augusta","GA","30907","2404","COLUMBIA" 
"CIRCLE K 5584",-81.991867,33.47028,"1501 Laney Walker Blvd","","Augusta","GA","30904","5827","RICHMOND" 
"ZIP TRIP",-84.721764,31.43186,"17097 S Highland Ave","","Arlington","GA","39813","2427","CALHOUN" 
"TARGET STORE T-1909",-84.0933,33.693237,"8109 Mall Pkwy","","Lithonia","GA","30038","2546","DEKALB" 
"TARGET STORE T-1910",-81.174927,31.982407,"14065 Abercorn St","","Savannah","GA","31419","1964","CHATHAM" 
"PUBLIX 1054",-84.202759,33.41209,"2158 Highway 20 W","","McDonough","GA","30253","7205","HENRY" 
"QUICK MART 3",-83.975632,34.514229,"5585 S Chestatee","","Dahlonega","GA","30533","6357","LUMPKIN" 
"HOLLANDS CORNER",-85.037163,32.626423,"1477 GA Highway 219","","Fortson","GA","31808","4011","MUSCOGEE" 
"MEAT MAN",-83.967735,33.964317,"452 Winder Hwy","Ste C","Lawrenceville","GA","30045","7500","GWINNETT" 
"B & G FOOD MART",-84.874969,32.760071,"132 NORTH OLD COLLEGE ST","","HAMILTON","GA","31811","","HARRIS" 
"DOLLAR GENERAL 10288",-84.992294,33.924255,"2515 Gold Mine Rd","","Dallas","GA","30157","4485","PAULDING" 
"DOLLAR GENERAL 10349",-84.581406,34.483547,"2335 Highway 136 Connector","","Talking Rock","GA","30175","3354","PICKENS" 
"DOLLAR GENERAL 10377",-85.052963,34.783836,"604 Lafayette Rd","","Rocky Face","GA","30740","9451","WHITFIELD" 
"NERETVA MARKET",-84.483093,33.903656,"2359 Windy Hill Rd SE","Ste 200","Marietta","GA","30067","8659","COBB" 
"WALGREEN 09849",-83.767426,31.963469,"1024 E 16th Ave","","Cordele","GA","31015","1538","CRISP" 
"GARRY'S GROCERY & MARKET 2",-82.992508,32.379688,"1004 Coleman Register Rd","","Rentz","GA","31075","","LAURENS" 
"C & S GROCERIES",-84.496979,33.675549,"3032 Stone Hogan Connector Rd SW","","Atlanta","GA","30331","2822","FULTON" 
"GLENWOOD GROCERY",-84.258919,33.738113,"3880 Glenwood Rd","","Decatur","GA","30032","7065","DEKALB" 
"SUNNY FOOD MART",-82.733963,31.276304,"7150 Atkinson Blvd E","","Axson","GA","31624","7009","ATKINSON" 
"PUBLIX 1056",-84.509766,33.656338,"3730 Carmia Dr SW","Ste 200","Atlanta","GA","30331","6259","FULTON" 
"P & P FOOD MART",-83.175842,32.194263,"431 Oak St","","Eastman","GA","31023","6621","DODGE" 
"MIDLAND SUPERETTE",-83.721718,33.999294,"121 W Midland Ave","","Winder","GA","30680","1825","BARROW" 
"FREDDYS FOOD MART",-83.860565,34.304882,"1296 Dawsonville Hwy","","Gainesville","GA","30501","2625","HALL" 
"FOREST PARK WHOLESALE FOOD OUTLET IGA",-84.353035,33.621758,"4855 Jonesboro Rd","","Forest Park","GA","30297","3549","CLAYTON" 
"WHOLESALE FOOD OUTLET CALHOUN  IGA",-84.944641,34.484661,"118 WC Bryant Pkwy","","Calhoun","GA","30701","2624","GORDON" 
"WALGREEN 09621",-84.247208,33.618664,"315 Fairview Rd","","Ellenwood","GA","30294","2634","DEKALB" 
"PETRO STATION",-82.346413,31.206247,"1001 S Georgia Pkwy E","","Waycross","GA","31501","2831","WARE" 
"EMPRESAS GARCIA",-83.5308,34.499348,"1709 Willingham Ave","","Cornelia","GA","30531","4210","HABERSHAM" 
"AASHIK",-83.449776,32.282146,"118 Eastman Hwy","","Hawkinsville","GA","31036","","PULASKI" 
"TARGET STORE T-373",-84.480782,33.895821,"2201 Cobb Pkwy SE","","Smyrna","GA","30080","7633","COBB" 
"FLASH FOODS 270",-84.217377,32.073647,"1101 Crawford St","","Americus","GA","31709","3274","SUMTER" 
"PRIYA FOOD MART",-84.155937,31.57411,"210 S Jefferson St","","Albany","GA","31701","2820","DOUGHERTY" 
"CHATTAHOOCHEE GROCERY",-83.641373,34.574467,"7240 Highway 115 E","","Cleveland","GA","30528","4112","WHITE" 
"DOLLAR GENERAL 10494",-82.994308,32.377064,"2213 GA Highway 117","","Rentz","GA","31075","3467","LAURENS" 
"QUICK STOP FOOD MART",-84.108292,33.710503,"6912 Main St","","Lithonia","GA","30058","2804","DEKALB" 
"QUICK STOP",-83.487938,31.446014,"1280 US Highway 82 E","","Tifton","GA","31794","9491","TIFT" 
"ARCADE SHELL",-83.558228,34.074558,"3226 Athens Hwy","","Jefferson","GA","30549","5604","JACKSON" 
"EL CARNAVAL",-83.668671,32.791748,"4009 Pio Nono Ave","","Macon","GA","31206","3045","BIBB" 
"DAVID & KATIES AMISH BULK FOODS",-83.498978,34.333908,"969 Historic Homer Hwy","","Homer","GA","30547","","BANKS" 
"FAST LANE FOOD",-83.61058,32.859558,"815 Shurling Dr","","Macon","GA","31211","1948","BIBB" 
"HOBO PANTRY 16",-84.879051,31.044554,"327 N Tennille Ave","","Donalsonville","GA","39845","1350","SEMINOLE" 
"BIG H FOOD STORE",-84.165474,33.757301,"1241 Panola Rd","","Stone Mountain","GA","30088","3257","DEKALB" 
"M L FOOD MART",-84.514816,32.317924,"201 E 6th Ave","","Buena Vista","GA","31803","","MARION" 
"PUBLIX 1061",-84.387466,33.780579,"950 W PEACHTREE ST NW","","ATLANTA","GA","30309","3854","FULTON" 
"LA MONTANA SUPERMARKET 2",-84.725098,33.751228,"5823 FAIRBURN RD","","DOUGLASVILLE","GA","30134","","DOUGLAS" 
"D J TROPICAL MART",-84.063553,33.925659,"2449 Lawrenceville Hwy","Ste C","Lawrenceville","GA","30044","8712","GWINNETT" 
"FLOWER'S DISCOUNT BAKERY STORE",-84.228035,34.235809,"3758 Post Rd","","Cumming","GA","30040","4968","FORSYTH" 
"WALGREEN 09272",-84.605324,33.905231,"1733 Macland Rd SW","","Marietta","GA","30064","4109","COBB" 
"SARINA V BP",-84.334908,32.943779,"1782 Highway 19 N","","Thomaston","GA","30286","1967","UPSON" 
"AM PM EXPRESS",-84.298088,33.225346,"1601 Williamson Rd","","Griffin","GA","30224","3932","SPALDING" 
"MORRIS GROCERY",-83.668518,34.386765,"5919 Main St","","Lula","GA","30554","2814","HALL" 
"QUICK STOP 2",-83.329453,31.413332,"2579 US Highway 82","","Enigma","GA","31749","2933","BERRIEN" 
"SUNNYSIDE SEAFOOD",-82.501472,33.465717,"130 HENDRICKS ST","","THOMSON","GA","30824","","MCDUFFIE" 
"THE PIGLET SUPERMARKET 49",-83.29586,31.993706,"337 Main St E","","Abbeville","GA","31001","4220","WILCOX" 
"FREDS STORE 1518",-83.767021,34.600052,"156 Wilford Ash SR Pkwy","","Cleveland","GA","30528","1115","WHITE" 
"FASTEE FOODS 2",-83.695435,32.838734,"3786 Log Cabin Dr","","Macon","GA","31204","3754","BIBB" 
"FREDS STORE 2958",-83.704521,33.681641,"1567 N Cherokee Rd","","Social Circle","GA","30025","4015","WALTON" 
"AFRICAN MARKET",-84.474281,33.614384,"5070 Old Bill Cook Rd","","Atlanta","GA","30349","3138","FULTON" 
"EASY STOP",-82.324982,32.587189,"437 S Main St","","Swainsboro","GA","30401","3667","EMANUEL" 
"WALGREEN 09622",-85.033104,33.038712,"115 Vernon St","","Lagrange","GA","30240","3109","TROUP" 
"CARNICERIA LA VILLA",-84.530518,33.950676,"737 Roswell St NE","Ste 204","Marietta","GA","30060","3503","COBB" 
"Dollar General 10272",-84.905701,33.711651,"2418 Devonion Dr","","Villa Rica","GA","30180","5898","CARROLL" 
"Dollar General 10576",-83.714355,33.939827,"14 Gifton Thomas Rd","","Bethlehem","GA","30620","2400","BARROW" 
"Dollar General 10225",-84.55085,34.315361,"6882 Reinhardt College Pkwy","","Waleska","GA","30183","3266","CHEROKEE" 
"Dollar General 10395",-84.815369,34.180328,"265 Cassville Rd","","Cartersville","GA","30120","2541","BARTOW" 
"Dollar General 9725",-84.560432,33.577076,"6641 Roosevelt Hwy","","Union City","GA","30291","1628","FULTON" 
"MICKEYS FOOD STORE",-82.242432,31.303823,"228 Highway Ave","","Blackshear","GA","31516","2236","PIERCE" 
"BROWNLEE TEXACO FOOD MART",-83.965836,33.28698,"316 Brownlee Rd","","Jackson","GA","30233","2406","BUTTS" 
"WINDSOR SUPERMARKET",-84.396416,33.740795,"307 Richardson St SW","","Atlanta","GA","30312","2630","FULTON" 
"WOODBURY FOODS",-84.573669,32.986382,"10966 Millarden Rd","","Woodbury","GA","30293","","MERIWETHER" 
"FASTOP 201",-83.200058,31.074963,"925 Patten Ave","Hwy 129 North","Ray City","GA","31645","7736","BERRIEN" 
"MINI MART",-84.209511,31.612274,"2422 Stuart Ave","","Albany","GA","31707","1667","DOUGHERTY" 
"WALGREEN 09890",-84.76178,33.395493,"1 Millard Farmer Ind Blvd","","Newnan","GA","30263","1078","COWETA" 
"ALAPAHA STATION",-83.225441,31.382069,"101 NW Railroad St","","Alapaha","GA","31622","4860","BERRIEN" 
"WAYFIELD FOODS 19",-84.486465,33.752476,"3050 Martin Luther King Jr Dr SW","Ste H","Atlanta","GA","30311","1500","FULTON" 
"WAL-MART SUPERCENTER 3874",-84.04631,34.34795,"156 Power Center Dr","","Dawsonville","GA","30534","9416","DAWSON" 
"DOLLAR GENERAL STORES 10161",-83.80407,34.44899,"5270 Cleveland Hwy","","Clermont","GA","30527","2200","HALL" 
"TIENDA Y CARNICERIA SONIA",-84.002953,34.121998,"115 E Main St","Ste B13","Buford","GA","30518","5727","GWINNETT" 
"QUICK SERVE",-84.20591,33.800964,"5675 Memorial Dr","","Stone Mountain","GA","30083","3252","DEKALB" 
"BIG FOUR DISCOUNT SUPERMARKET",-84.401672,33.727859,"1003 McDaniel St SW","","Atlanta","GA","30310","3115","FULTON" 
"DISCOUNT STOP 6",-81.497589,31.167032,"2722 Norwich St","","Brunswick","GA","31520","5018","GLYNN" 
"TARGET STORE T-2091",-84.684586,34.036259,"3378 Cobb Pkwy NW","","Acworth","GA","30101","","COBB" 
"TARGET STORE T-2129",-84.589989,33.441025,"1209 N Peachtree Pkwy","","Peachtree City","GA","30269","1743","FAYETTE" 
"SUPER H MART",-84.411354,33.582996,"6335 Highway 85","","Riverdale","GA","30274","1608","CLAYTON" 
"B&K GROCERY STORE",-84.424316,33.720356,"1265 LEE ST","","ATLANTA","GA","30310","4034","FULTON" 
"SAVE A LOT 24539",-84.416809,34.463409,"934 E Church St","","Jasper","GA","30143","1902","PICKENS" 
"CLYDES MARKET 5",-82.871529,31.512756,"1601 Ocilla Rd","","Douglas","GA","31533","2214","COFFEE" 
"COSTA DE JALISCO 2",-83.384262,33.961525,"140 Barber St","","Athens","GA","30601","2303","CLARKE" 
"PUBLIX 1044",-84.35141,33.81881,"2325 CHESIRE RD NE","","ATLANTA","GA","30324","3725","FULTON" 
"CONOCO GAS STATION",-84.096031,33.808296,"5150 Annistown Rd","","Stone Mountain","GA","30087","3834","DEKALB" 
"FREDS STORE 1523",-83.427826,33.946507,"2656 Atlanta Hwy","Ste B","Athens","GA","30606","3341","CLARKE" 
"DOLLAR TREE 0108",-82.08606,33.46986,"1329 Augusta West Pkwy","","Augusta","GA","30909","6428","RICHMOND" 
"ROCKY'S SNACK N SHOP",-83.612846,32.647923,"1029 N Davis Dr","","Warner Robins","GA","31093","1941","HOUSTON" 
"Rite Aid 11697",-84.088531,34.252876,"2820 Keith Bridge Rd","","Cumming","GA","30041","3935","FORSYTH" 
"Rite Aid 11696",-84.195145,34.239273,"2323 Canton Hwy","","Cumming","GA","30040","4322","FORSYTH" 
"Rite Aid 11817",-84.473022,34.684002,"192 1st Ave","","East Ellijay","GA","30540","8101","GILMER" 
"Rite Aid 11860",-84.869019,32.53857,"6950 Beaver Run Rd","","Midland","GA","31820","3714","MUSCOGEE" 
"Rite Aid 11812",-83.937355,34.094807,"3330 Hamilton Mill Rd","","Buford","GA","30519","4005","GWINNETT" 
"Rite Aid 11828",-84.92289,34.511795,"1101 Red Bud Rd NE","","Calhoun","GA","30701","9278","GORDON" 
"QUICK STOP 3",-82.893906,32.06591,"89 E Oak St","","McRae","GA","31055","4336","TELFAIR" 
"Umiya  Ma Inc dba Stop & Shop",-83.257469,30.838827,"1408 E Hill Ave","","Valdosta","GA","31601","4964","LOWNDES" 
"DOLLAR GENERAL 10577",-82.324051,33.417622,"601 W Milledgeville Rd","","Harlem","GA","30814","5086","COLUMBIA" 
"K & C SHORT STOP 2",-82.913361,32.528461,"1108 Telfair St","","Dublin","GA","31021","4639","LAURENS" 
"COLLEGE CORNER",-84.204506,31.584166,"2217 Gillionville Rd","","Albany","GA","31707","3155","DOUGHERTY" 
"MARATHON FOOD MART",-84.3125,33.583008,"2390 Lake Harbin Rd","","Morrow","GA","30260","1906","CLAYTON" 
"BELLSMIT FOOD",-82.353508,31.780024,"520 W Parker St Ste B","","Baxley","GA","31513","0684","APPLING" 
"SEA WAYS SEAFOOD II",-83.603973,32.629032,"69 Green St","","Warner Robins","GA","31093","2650","HOUSTON" 
"MELODY'S MAGIC MART",-83.702347,32.786606,"2487 Rocky Creek Rd","","Macon","GA","31206","4431","BIBB" 
"Circle K Store 6719",-83.629288,32.844582,"15 Spring St","","Macon","GA","31201","1925","BIBB" 
"SUPER SODA",-84.277802,33.247341,"930 W Taylor St","","Griffin","GA","30223","2606","SPALDING" 
"Rite Aid 11716",-84.521568,34.068874,"4815 Canton Rd","","Marietta","GA","30066","3251","COBB" 
"Rite Aid 11718",-84.507004,33.996407,"1900 Sandy Plains Rd","","Marietta","GA","30066","6556","COBB" 
"Rite Aid 11771",-84.140472,33.507965,"2125 Highway 155 N","","McDonough","GA","30252","4809","HENRY" 
"CITGO FOOD MART",-83.784737,34.280605,"2127 Athens Hwy","","Gainesville","GA","30507","7403","HALL" 
"CARNICERIA LA SUPERIOR INC",-83.743423,34.266308,"2975 Gillsville Hwy","","Gainesville","GA","30507","7946","HALL" 
"DOLLAR GENERAL 9040",-84.77256,33.704063,"6040 Central Church Rd","","Douglasville","GA","30135","","DOUGLAS" 
"DISCOUNT STOP FOOD MART",-81.931946,33.457455,"545 Sand Bar Ferry Rd","","Augusta","GA","30901","1939","RICHMOND" 
"Dollar General 0030",-84.774933,34.754715,"169 Blackwell Rd","","Chatsworth","GA","30705","3057","MURRAY" 
"Trader Joe's 730",-84.369316,33.779537,"931 Monroe Dr NE","","Atlanta","GA","30308","1793","FULTON" 
"ALDI 94",-85.233231,34.947651,"1999 Battlefield Pkwy","","Fort Oglethorpe","GA","30742","4023","CATOOSA" 
"CHEVRON MART",-85.275719,34.007858,"502 Adamson Rd","","Cedartown","GA","30125","2491","POLK" 
"Trader Joe's 733",-84.379715,34.057587,"635 W Crossville Rd","","Roswell","GA","30075","2500","FULTON" 
"FAMILY STORE 2535",-84.471191,33.790096,"2535 Center St NW","","Atlanta","GA","30318","3801","FULTON" 
"FISH BONES SEAFOOD MARKET",-82.893906,32.06591,"79 E Oak St","","McRae","GA","31055","4336","TELFAIR" 
"SAVE-A-LOT 571",-83.666885,32.8144,"1500 Eisenhower Pkwy","Macon Plaza","Macon","GA","31206","","BIBB" 
"WESTLAKE FOOD MART",-84.442406,33.773087,"1677 Donald Lee Hollowell Pkwy NW","","Atlanta","GA","30318","5048","FULTON" 
"ADENS MINIT MARKET 69",-83.040169,31.338772,"400 Main St E","","Willacoochee","GA","31650","","ATKINSON" 
"SUPERMERCADO EL POTRERO",-84.133957,33.913067,"845 Beaver Ruin Rd NW","","Lilburn","GA","30047","3405","GWINNETT" 
"ALLENS MARKET",-84.819206,34.53307,"4782 Red Bud Rd NE","","Calhoun","GA","30701","9619","GORDON" 
"DOLLAR GENERAL 10550",-82.089981,33.315895,"2464 GEORGIA HWY 88","","HEPHZIBAH","GA","30815","","RICHMOND" 
"DOLLAR GENERAL 10479",-81.389618,32.172554,"1200 US Highway 80","","Eden","GA","31307","","EFFINGHAM" 
"QUICK STOP 92",-81.116425,32.087769,"1450 W Bay St","","Savannah","GA","31415","1504","CHATHAM" 
"CIRCLE K 6741",-84.960991,32.469406,"2102 Wynnton Rd","","Columbus","GA","31906","2409","MUSCOGEE" 
"EXXON FOOD MART",-83.855751,34.277653,"2322 Browns Bridge Rd","","Gainesville","GA","30504","6041","HALL" 
"Trader Joe's 731",-84.379028,33.926605,"6277 Roswell Rd NE","","Sandy Springs","GA","30328","3207","FULTON" 
"FAST LANE FOOD MART",-84.07328,31.573723,"3000 Sylvester Rd","","Albany","GA","31705","6400","DOUGHERTY" 
"FREDS STORE 1053",-85.172417,34.338573,"4111 Martha Berry Hwy NW","","Rome","GA","30165","7705","FLOYD" 
"FREDS STORE 1610",-83.842384,33.602257,"6179 Highway 278 NE","","Covington","GA","30014","2673","NEWTON" 
"TWINS FOOD MART #2",-84.911713,32.441303,"26 Northstar Dr","","Columbus","GA","31907","6348","MUSCOGEE" 
"FREDS STORE 3370",-82.382187,33.216213,"605 N Main St","","Wrens","GA","30833","1178","JEFFERSON" 
"HORNET FOOD & GAS",-83.67437,32.839195,"3109 Hillcrest Ave","","Macon","GA","31204","3824","BIBB" 
"K & A Grocery #1",-83.429405,33.032566,"1359 GA Highway 22 E","","Haddock","GA","31033","","JONES" 
"Dollar General 10676",-85.048615,31.61426,"804 Eufaula Hwy","","Fort Gaines","GA","39851","","CLAY" 
"PATEL BROTHERS",-84.282097,33.797626,"1709 Church St","","Decatur","GA","30033","5601","DEKALB" 
"TARGET STORE T-2171",-84.367165,33.824223,"2539 Piedmont Rd NE","","Atlanta","GA","30324","3006","FULTON" 
"TARGET STORE T-2174",-84.014481,33.632912,"2195 Highway 20 SE","","Conyers","GA","30013","2028","ROCKDALE" 
"STOP N BUY",-83.635704,31.670969,"2695 HWY 41 SOUTH","","SYCAMORE","GA","31790","","TURNER" 
"SANDY POINT GROCERY",-83.891655,32.755524,"3737 Sandy Point Rd","","Lizella","GA","31052","7047","BIBB" 
"HUNGRY HUNTER",-82.810165,32.936752,"91 N 4th St","","Tennille","GA","31089","1176","WASHINGTON" 
"ALDI 59",-84.27066,33.753136,"3480 Memorial Dr","","Decatur","GA","30032","2708","DEKALB" 
"ALDI 55",-84.428925,33.595966,"5820 Riverdale Rd","","College Park","GA","30349","6202","FULTON" 
"ALDI 53",-84.467506,34.089195,"200 W Village Dr","","Woodstock","GA","30188","5132","CHEROKEE" 
"WEST ROME FOOD MART",-85.202446,34.266148,"708 Shorter Ave NW","","Rome","GA","30165","4130","FLOYD" 
"WHOLE FOODS MARKET 10215",-84.185188,34.014378,"5945 STATE BRIDGE RD","","DULUTH","GA","30097","","FULTON" 
"HAPEVILLE FOOD MART",-84.399269,33.653744,"315 N Central Ave","","Hapeville","GA","30354","1601","FULTON" 
"CARNICERIA LA REYNA",-84.793533,34.163841,"208 S Tennessee St","","Cartersville","GA","30120","3606","BARTOW" 
"G & S FOOD MART",-82.245789,31.302744,"3440 US Highway 84","","Blackshear","GA","31516","2296","PIERCE" 
"PUBLIX 1143",-84.752693,33.375713,"1110 Lower Fayetteville Rd","","Newnan","GA","30265","","COWETA" 
"CARNICERIA MI PUEBLO INC",-84.082077,33.945915,"1098 Herrington Rd","Ste 17","Lawrenceville","GA","30044","7585","GWINNETT" 
"SHAPLA FOOD MART",-84.475929,33.922512,"2610 Delk Rd SE","","Marietta","GA","30067","8800","COBB" 
"Trader Joe's 732",-84.428223,33.982716,"4250 Roswell Rd","","Marietta","GA","30062","6498","COBB" 
"WAL-MART SUPERCENTER 3402",-84.232521,33.505627,"1400 Hudson Bridge Rd","","Stockbridge","GA","30281","5018","HENRY" 
"WAL-MART SUPERCENTER 3775",-84.414337,33.803215,"1801 HOWELL MILL RD","","ATLANTA","GA","30318","","FULTON" 
"WAL-MART SUPERCENTER 3786",-83.920097,34.076687,"3260 Sardis Church Rd","","Buford","GA","30519","","GWINNETT" 
"SHELL FOOD MART",-84.770599,33.70636,"3638 Highway 5","","Douglasville","GA","30135","2364","DOUGLAS" 
"FOOD LION 691",-81.23307,32.110222,"1017 US Highway 80 E","Ste 13","Pooler","GA","31322","9533","CHATHAM" 
"PUBLIX 1060",-84.330093,34.165756,"980 BIRMINGHAM RD","","ALPHARETTA","GA","30004","","FULTON" 
"Trader Joe's 734",-84.216248,33.980011,"5185 Peachtree Pkwy","Ste 101","Norcross","GA","30092","6542","GWINNETT" 
"Rite Aid 11750",-84.428421,34.468735,"70 E Church St","","Jasper","GA","30143","1607","PICKENS" 
"Rite Aid 11805",-81.764702,32.439892,"500 NORTHSIDE DR","","STATESBORO","GA","30458","","BULLOCH" 
"Rite Aid 11818",-83.91008,34.176678,"5915 Spout Springs Rd","","Flowery Branch","GA","30542","3450","HALL" 
"PIGGLY WIGGLY 658",-84.281059,33.729256,"2112 Candler Rd","","Decatur","GA","30032","5500","DEKALB" 
"Quick Stop",-84.380844,33.606529,"5428 Old Dixie Hwy","","Forest Park","GA","30297","2617","CLAYTON" 
"Shree Shree Khodiyar Inc",-83.709267,32.817684,"4691 Log Cabin Dr","","Macon","GA","31204","6317","BIBB" 
"ADAMS MARKET",-81.492439,31.152912,"1700 Norwich St","","Brunswick","GA","31520","6449","GLYNN" 
"JANIS GROCERY",-82.109077,32.179707,"207 NE Pearl St","","Collins","GA","30421","","TATTNALL" 
"WAL-MART SUPERCENTER 3611",-84.633507,33.869152,"6520 Ernest W Barrett Pkwy SW","","Marietta","GA","30064","4571","COBB" 
"WAL-MART SUPERCENTER 3748",-84.698769,34.047596,"3826 Cobb Pkwy NW","","Acworth","GA","30101","4022","COBB" 
"QUICK STOP",-82.021652,33.087399,"517 W 6th St","","Waynesboro","GA","30830","1473","BURKE" 
"P & G SUPERETTE",-83.762215,34.09795,"4335 Highway 53","","Hoschton","GA","30548","2079","JACKSON" 
"PUBLIX 1139",-84.715485,33.688137,"4300 CHAPEL HILL RD","","DOUGLASVILLE","GA","30135","","DOUGLAS" 
"SUNSHINE SHELL",-84.403694,33.545444,"407 Highway 138 SW","","Riverdale","GA","30274","3903","CLAYTON" 
"WILKES MEAT MARKET OF SUWANEE",-84.071465,34.065853,"360 Peachtree Industrial Blvd","Ste 103","Suwanee","GA","30024","4056","GWINNETT" 
"CORNER STOP",-82.333046,31.230261,"2401 Plant Ave","","Waycross","GA","31501","6045","WARE" 
"FOOD LION 2682",-81.21978,31.984934,"1040 KING GEORGE BLVD","","SAVANNAH","GA","31419","","CHATHAM" 
"H&M QUICK MART",-84.847542,34.098866,"571 Highway 61 SE","","Cartersville","GA","30120","6717","BARTOW" 
"C&J COMPANY",-81.987373,33.463608,"1377 Wrightsboro Rd","","Augusta","GA","30901","3255","RICHMOND" 
"MIRACLE MART",-84.574516,33.093952,"18717 Highway 85","","Gay","GA","30218","","MERIWETHER" 
"PIGGLY WIGGLY 275",-83.431786,31.134897,"714 W 4th St","","Adel","GA","31620","","COOK" 
"FARAH FOOD EXPRESS",-84.898613,32.481586,"5506 Forest Rd","","Columbus","GA","31907","6859","MUSCOGEE" 
"FOOD DEPOT 47",-84.160149,33.786373,"5741 Rockbridge Rd Ste 100","","Stone Mountain","GA","30087","5702","DEKALB" 
"ROSWELL FOOD MART",-84.378708,33.908623,"5645 Roswell Rd","","Sandy Springs","GA","30342","1116","FULTON" 
"PUBLIX 1130",-84.187416,34.173286,"5475 Bethelview Rd","","Cumming","GA","30040","9731","FORSYTH" 
"PUBLIX 1052",-84.179642,33.366875,"2730 Highway 155","","Locust Grove","GA","30248","2401","HENRY" 
"MAIN STREET MARKET AND DELI",-84.369148,33.822582,"546 Main St NE","","Atlanta","GA","30324","6250","FULTON" 
"COVINGTON HWY FOOD SHOP",-84.193993,33.730995,"5400 Covington Hwy","A","Decatur","GA","30035","2517","DEKALB" 
"VILLA ROSA",-85.006668,33.720078,"895 Bar J Rd","","Temple","GA","30179","4344","CARROLL" 
"WAL-MART SUPERCENTER 3401",-84.469193,33.58736,"6149 OLD NATIONAL HWY","","COLLEGE PARK","GA","30349","","FULTON" 
"WAL-MART SUPERCENTER 3621",-84.309753,33.888756,"1871 Chamblee Tucker Rd","","Chamblee","GA","30341","2737","DEKALB" 
"WAL-MART SUPERCENTER 1311",-84.950813,32.540237,"5448 Whittlesey Blvd Ste B","","Columbus","GA","31909","7298","MUSCOGEE" 
"WALGREEN 10121",-84.427238,34.468624,"199 E Church St","","Jasper","GA","30143","1301","PICKENS" 
"SPEEDY SERVE CONVENIENCE STORE",-85.028801,33.032627,"201 Whitesville St","","Lagrange","GA","30240","4616","TROUP" 
"KROGER 647",-84.754295,33.377098,"1751 Newnan Crossing Blvd E","","Newnan","GA","30265","1517","COWETA" 
"J & S FOOD MART",-84.245186,33.780594,"195 Northern Ave","","Avondale Est","GA","30002","1738","DEKALB" 
"JR FOODS",-83.501472,31.451946,"701 2nd St E","","Tifton","GA","31794","4507","TIFT" 
"SHORT STOP",-82.013916,33.446415,"2510 Milledgeville Rd","","Augusta","GA","30904","4932","RICHMOND" 
"DOLLAR GENERAL 10653",-84.57122,33.226368,"214 Highway 85","","Haralson","GA","30229","9900","COWETA" 
"RUSTYS MEAT MARKET",-85.264694,34.968334,"1219 Lafayette Rd","","Rossville","GA","30741","2011","WALKER" 
"JERRYS COUNTRY MEATS",-84.721764,31.43186,"17017 S Highland Ave","","Arlington","GA","39813","2427","CALHOUN" 
"R & R QUICK STOP 1",-83.88134,32.548176,"501 Martin Luther King Jr Dr","","Fort Valley","GA","31030","4928","PEACH" 
"TEXACO FOOD MART",-84.209206,33.786953,"4513 Rockbridge Rd","","Stone Mountain","GA","30083","4240","DEKALB" 
"ELLINGTON TEXACO",-83.96489,33.57896,"20 Salem Cir","","Covington","GA","30016","4181","NEWTON" 
"FLOWERS DISCOUNT BAKERY STORE",-83.529793,34.592434,"151 HISTORIC HWY 441","","CLARKSVILLE","GA","30523","","HABERSHAM" 
"Dollar General 10713",-84.734138,32.686752,"9 Waverly Cir","","Waverly Hall","GA","31831","3537","HARRIS" 
"BOBS GROCERY",-84.208794,31.235176,"122 N Harney St","","Camilla","GA","31730","1271","MITCHELL" 
"EL MAGUEY SUPERMERCADO",-83.838226,34.272068,"1282 Industrial Blvd","","Gainesville","GA","30501","6519","HALL" 
"WOODBINE GROCERY",-81.718605,30.961643,"908 Georgia Ave","","Woodbine","GA","31569","3574","CAMDEN" 
"FRIENDLY EXPRESS",-84.95459,32.441002,"2936 N Lumpkin Rd","","Columbus","GA","31903","1549","MUSCOGEE" 
"FREDS STORE 1838",-84.296722,33.390816,"80 Oak St","","Hampton","GA","30228","2974","HENRY" 
"FREDS STORE 1873",-83.182343,33.577797,"203 N Main St","","Greensboro","GA","30642","1109","GREENE" 
"FREDS STORE 2908",-84.266106,33.553753,"3813 Highway 138 SE","","Stockbridge","GA","30281","4141","HENRY" 
"FREDS STORE 3033",-85.028511,33.727951,"327 Carrollton St","","Temple","GA","30179","3796","CARROLL" 
"SHAKI FOOD",-84.232079,32.070618,"137 S Lee St","","Americus","GA","31709","3505","SUMTER" 
"CAPTAIN WILLS",-82.055336,33.397526,"2456 Windsor Spring Rd","","Augusta","GA","30906","4647","RICHMOND" 
"CHEVRON FOOD MART",-84.484993,33.697029,"2959 Campbellton Rd SW","","Atlanta","GA","30311","4501","FULTON" 
"BANKHEAD SHELL",-84.416893,33.773022,"902 Donald Lee Hollowell Pkwy NW","","Atlanta","GA","30318","6602","FULTON" 
"FAST STOP",-81.927917,31.939272,"316 N Downing Musgrove Hwy","","Glennville","GA","30427","2052","TATTNALL" 
"PINE RIDGE ANGUS FARMS MEATS",-83.685143,31.269712,"150 E Broad","","Norman Park","GA","31771","","COLQUITT" 
"Global Grocery LLC",-84.455353,33.616135,"2050 Southampton Rd","","Atlanta","GA","30349","5189","FULTON" 
"EZ STOP FOOD MART",-83.787987,31.963469,"501 E 16th Ave","","Cordele","GA","31015","1725","CRISP" 
"EVERYDAY STOP",-84.884979,32.516476,"6125 Macon Rd","","Columbus","GA","31907","8033","MUSCOGEE" 
"DOLLAR GENERAL 10631",-84.281593,34.412804,"25 Holcombe Village Cir","","Marble Hill","GA","30148","2268","PICKENS" 
"DOLLAR GENERAL 10944",-82.340019,31.775673,"663 E Parker St","","Baxley","GA","31513","0022","APPLING" 
"East Dublin Seafood",-82.881554,32.538887,"106 Nathaniel Dr","","East Dublin","GA","31027","7802","LAURENS" 
"SAMS QUICK STOP",-83.464722,32.282146,"86 Broad St","","Hawkinsville","GA","31036","4814","PULASKI" 
"CROSS ROADS COUNTRY STORE",-84.899986,33.767094,"1480 Dallas Hwy","","Villa Rica","GA","30180","3430","CARROLL" 
"BP FOOD SHOP",-84.562454,33.576096,"6725 Roosevelt Hwy","","Union City","GA","30291","1638","FULTON" 
"QUIKTRIP 728",-84.238846,33.837006,"3317 Lawrenceville Hwy","","Tucker","GA","30084","7132","DEKALB" 
"TEXACO FOOD MART",-84.393707,33.566074,"126 Valley Hill Rd SW","","Riverdale","GA","30274","3140","CLAYTON" 
"NEELS MARKET",-84.962929,34.467739,"602 Highway 53 West SW","","Calhoun","GA","30701","7715","GORDON" 
"QUICK MART 1",-83.974648,34.523903,"891 S Chestatee St","","Dahlonega","GA","30533","1610","LUMPKIN" 
"D M ENTERPRISES",-84.250336,33.649921,"4176 Linecrest Rd","","Ellenwood","GA","30294","1843","DEKALB" 
"CHEVRON FOOD MART",-83.591026,32.901131,"2810 Gray Hwy","","Macon","GA","31211","6608","BIBB" 
"PIRANI ENTERPRISES",-84.021141,33.689259,"993 Sigman Rd NW","","Conyers","GA","30012","4087","ROCKDALE" 
"ONE STOP SHOP",-84.933655,34.97567,"5414 Cleveland Rd","","Cohutta","GA","30710","9510","WHITFIELD" 
"QUIKTRIP 794",-84.014938,33.87064,"2008 Scenic Hwy N","","Snellville","GA","30078","2151","GWINNETT" 
"QUIK TRIP 798",-83.86454,33.602688,"3214 Highway 278 NW","","Covington","GA","30014","2200","NEWTON" 
"QUIKTRIP 801",-84.527481,34.086327,"9765 Highway 92","","Woodstock","GA","30188","3842","CHEROKEE" 
"QUIKTRIP 802",-83.977196,33.626343,"2400 Salem Rd SE","","Conyers","GA","30013","6313","ROCKDALE" 
"QUIK TRIP 803",-84.360161,34.047226,"20 E Crossville Rd","","Roswell","GA","30075","5844","FULTON" 
"QUIKTRIP 806",-84.496529,33.951233,"1900 Lower Roswell Rd","","Marietta","GA","30068","3347","COBB" 
"QUIKTRIP 807",-84.429695,33.50919,"1846 Highway 85 N","","Fayetteville","GA","30214","4061","FAYETTE" 
"QUIKTRIP 771",-83.865234,34.22472,"3446 MUNDY MILL RD","","FLOWERY BRANCH","GA","30566","","HALL" 
"QUIKTRIP 772",-84.251389,33.547535,"5260 N Henry Blvd","","Stockbridge","GA","30281","3230","HENRY" 
"QUIKTRIP 769",-84.091751,34.049843,"1075 Peachtree Industrial Blvd","","Suwanee","GA","30024","1919","GWINNETT" 
"CITGO MART",-84.231445,33.821823,"1307 Brockett Rd","","Clarkston","GA","30021","1502","DEKALB" 
"QUIKTRIP 766",-83.925545,33.983963,"1750 Winder Hwy","","Dacula","GA","30019","2218","GWINNETT" 
"QUIKTRIP 760",-84.41423,33.554317,"7350 Highway 85","","Riverdale","GA","30274","3453","CLAYTON" 
"QUIKTRIP 757",-84.907036,34.378487,"961 Highway 140 NW","","Adairsville","GA","30103","2202","BARTOW" 
"QUIKTRIP 790",-84.105476,33.908676,"3747 Lawrenceville Hwy","","Lawrenceville","GA","30044","4109","GWINNETT" 
"QUIKTRIP 789",-84.239273,33.503357,"1614 Hudson Bridge Rd","","Stockbridge","GA","30281","5022","HENRY" 
"QUIKTRIP 788",-84.824837,33.909603,"491 Nathan Dean Blvd","","Dallas","GA","30132","4921","PAULDING" 
"QUIKTRIP 787",-84.298828,33.612015,"2881 Forest Pkwy","","Ellenwood","GA","30294","3518","DEKALB" 
"QUIKTRIP 783",-84.178703,33.431694,"50 Willow Ln","","McDonough","GA","30253","6569","HENRY" 
"QUIKTRIP 776",-84.218018,33.977383,"5255 Peachtree Pkwy","","Norcross","GA","30092","2552","GWINNETT" 
"QUIKTRIP 775",-84.509506,34.033226,"105 EARNEST BARRETT PKY NW","","MARIETTA","GA","30066","","COBB" 
"QUIKTRIP 773",-84.305702,33.894588,"5347 Peachtree Blvd","","Atlanta","GA","30341","2139","DEKALB" 
"QUIKTRIP 756",-84.362724,33.515232,"8805 Tara Blvd","","Jonesboro","GA","30236","4970","CLAYTON" 
"QUIKTRIP 755",-83.990936,34.034805,"1055 Old Peachtree Rd","","Lawrenceville","GA","30043","3309","GWINNETT" 
"QUIKTRIP 753",-84.621811,34.020279,"2761 Cobb Pkwy NW","","Kennesaw","GA","30152","3473","COBB" 
"QUIKTRIP 808",-84.710693,33.749962,"2042 Fairburn Rd","","Douglasville","GA","30135","1036","DOUGLAS" 
"QUIKTRIP 810",-84.937714,33.715923,"650 Carrollton Villa Rica Hwy","","Villa Rica","GA","30180","4969","CARROLL" 
"QUIKTRIP 811",-84.699913,34.04911,"3888 Cobb Pkwy NW","","Acworth","GA","30101","4022","COBB" 
"QUIKTRIP 812",-84.087555,34.253136,"2830 Keith Bridge Rd","","Cumming","GA","30041","3935","FORSYTH" 
"QUIKTRIP 813",-84.723579,33.40099,"1670 Highway 34 E","","Newnan","GA","30265","1324","COWETA" 
"QUIKTRIP 817",-84.666862,33.860794,"1390 Richard D Sailors Pkwy","","Powder Springs","GA","30127","5223","COBB" 
"QUIKTRIP 831",-84.16304,33.976723,"4006 Buford Hwy","","Duluth","GA","30096","4138","GWINNETT" 
"QUIKTRIP 815",-84.536743,33.968128,"671 Cobb Pkwy N","","Marietta","GA","30062","2405","COBB" 
"QUICK STOP 1",-83.553612,30.78488,"812 E Screven St","","Quitman","GA","31643","2229","BROOKS" 
"CARRILLO EL GUERO 2",-83.83181,34.284466,"730 Pearl Nix Pkwy","","Gainesville","GA","30501","8528","HALL" 
"ONE STOP",-85.248657,34.979382,"1218 Lakeview Dr","","Rossville","GA","30741","3165","WALKER" 
"QUIKTRIP 834",-85.023056,33.605705,"1676 Bankhead Hwy","","Carrollton","GA","30116","7420","CARROLL" 
"M & M FOOD MART",-83.305595,30.839867,"900 Melody Ln","","Valdosta","GA","31601","4310","LOWNDES" 
"ALDI 56",-84.227837,33.680847,"4900 Flat Shoals Pkwy","","Decatur","GA","30034","5209","DEKALB" 
"SHELL FOOD MART",-84.585083,33.818264,"1057 Veterans Memorial Hwy SW","","Mableton","GA","30126","3105","COBB" 
"CHEVRON 3",-84.248245,33.803036,"3635 Church St","","Clarkston","GA","30021","1704","DEKALB" 
"DEEP SPRING SUPERETTE",-84.872276,34.878544,"1640 Beaverdale Rd NE","","Dalton","GA","30721","7237","WHITFIELD" 
"PigglyWiggly 401",-85.070099,33.032604,"1861 Roanoke Rd","","Lagrange","GA","30240","3850","TROUP" 
"KIMS ORIENTAL MARKET",-82.035484,33.420273,"2324 Lumpkin Rd","","Augusta","GA","30906","3013","RICHMOND" 
"BP FOOD MART",-84.320107,33.427902,"11205 TARA BLVD","","LOVEJOY","GA","30250","","CLAYTON" 
"GET N GO 1",-84.433342,33.59341,"5995 Riverdale Rd","","Riverdale","GA","30296","3231","CLAYTON" 
"DERST BAKING COMPANY STORE 41",-81.835419,32.382988,"9559 Hwy 301 South","","Statesboro","GA","30458","","BULLOCH" 
"CITGO FOOD MART",-83.551704,32.841183,"3705 Irwinton Rd","","Macon","GA","31217","6332","BIBB" 
"CITGO FOOD MART",-84.48584,33.696342,"2989 Campbellton Rd SW","","Atlanta","GA","30311","4501","FULTON" 
"FREDS STORE 2128",-83.122368,33.882603,"718 Athens Rd","","Lexington","GA","30648","1907","OGLETHORPE" 
"DOLLAR GENERAL 10651",-84.944275,34.801212,"1004 Riverburch Pkwy","","Dalton","GA","30721","8630","WHITFIELD" 
"DOLLAR GENERAL 12018",-83.983185,33.29285,"1313 W 3rd St","","Jackson","GA","30233","1853","BUTTS" 
"DOLLAR GENERAL 10931",-83.486916,31.445707,"1290 US Highway 82 E","","Tifton","GA","31794","9444","TIFT" 
"CARNICERIA Y TAQUERIA BELLA VISTA 2",-84.000404,33.650608,"1373 Iris Dr SE","","Conyers","GA","30013","1768","ROCKDALE" 
"EAGLE FOOD MART",-84.333672,33.747498,"1648 Memorial Dr SE","","Atlanta","GA","30317","2054","DEKALB" 
"TIENDA Y CARNICERIA LA UNICA",-84.360672,33.638535,"4234 Jonesboro Rd","","Forest Park","GA","30297","3537","CLAYTON" 
"CVS PHARMACY 7223",-85.28109,34.710461,"311 N Main St","","La Fayette","GA","30728","","WALKER" 
"BUTCHERS BLOCK",-81.299248,32.132412,"102 E US Highway 80","B","Bloomingdale","GA","31302","9225","CHATHAM" 
"RICKS SUPERMARKET",-81.553963,31.253042,"6612 New Jesup Hwy","","Brunswick","GA","31523","4100","GLYNN" 
"ALDI 68",-84.490974,33.9669,"2125 Roswell Rd","Ste 30","Marietta","GA","30062","7533","COBB" 
"HANDY MART",-85.041435,34.00349,"625 N Piedmont Ave","","Rockmart","GA","30153","2443","POLK" 
"FAIR MART",-84.827545,33.726456,"7703 Highway 78","","Winston","GA","30187","1433","DOUGLAS" 
"SHELL FOOD MART",-84.862625,34.78101,"5040 Highway 76","","Chatsworth","GA","30705","7310","MURRAY" 
"EXPRESS SHOP AMOCO",-84.422424,33.526012,"8426 HWY 85","A","RIVERDALE","GA","30274","","CLAYTON" 
"Walgreens 7567",-85.24514,34.952526,"1228 Battlefield Pkwy","","Ft Oglethorpe","GA","30742","4008","CATOOSA" 
"Walgreens 7995",-84.197151,33.761925,"4765 Redan Rd","","Stone Mountain","GA","30088","4550","DEKALB" 
"DOUGS QUICK STOP",-82.661697,33.406273,"49 W Gibson St","","Warrenton","GA","30828","8430","WARREN" 
"JACKSON PIGGLY WIGGLY",-83.952744,33.294426,"1010 E 3rd St","","Jackson","GA","30233","2114","BUTTS" 
"WEST ROME IGA",-85.199814,34.265526,"610 Shorter Ave NW","","Rome","GA","30165","4283","FLOYD" 
"CARNICERIA 3 HERMANOS",-84.359322,34.026543,"1027 Alpharetta St","","Roswell","GA","30075","3601","FULTON" 
"H-XPRESS",-82.462204,31.541372,"101 N Pierce St","","Alma","GA","31510","2533","BACON" 
"GARYS FOOD MART 4",-83.554352,32.874916,"158 GA Highway 49","","Macon","GA","31211","7800","BIBB" 
"LIBERTY FOOD MART",-85.09388,31.882996,"1193 US Highway 82","","Georgetown","GA","39854","4715","QUITMAN" 
"Family Dollar Store 154",-83.990891,33.942837,"249 Scenic Hwy","","Lawrenceville","GA","30045","8402","GWINNETT" 
"Family Dollar Store 363",-84.53363,33.943199,"619 S Marietta Pkwy SE","","Marietta","GA","30060","2748","COBB" 
"Family Dollar Store 511",-84.284248,33.733147,"1982 Candler Rd","","Decatur","GA","30032","4225","DEKALB" 
"Family Dollar Store 4107",-84.313499,33.583038,"2350 Lake Harbin Rd","","Morrow","GA","30260","1908","CLAYTON" 
"Family Dollar Store 6030",-84.452011,33.776768,"2045 Donald Lee Hollowell Pkwy NW","","Atlanta","GA","30318","4701","FULTON" 
"Family Dollar Store 7132",-84.819908,33.814083,"4326 Ridge Rd","","Douglasville","GA","30134","5043","DOUGLAS" 
"Family Dollar Store 7527",-84.484802,33.883396,"2393 Spring Rd SE","","Smyrna","GA","30080","2631","COBB" 
"Family Dollar Store 7528",-84.217262,33.737488,"4787 Covington Hwy","","Decatur","GA","30035","2005","DEKALB" 
"Family Dollar Store 1725",-84.502754,33.62191,"3435 Roosevelt Hwy","Ste C","Red Oak","GA","30272","2312","FULTON" 
"Family Dollar Store 5868",-84.549538,33.59631,"4960 Roosevelt Hwy","","Union City","GA","30291","1124","FULTON" 
"Wal-Mart Supercenter 3627",-83.870705,34.232063,"3875 Mundy Mill Rd","","Oakwood","GA","30566","3415","HALL" 
"KANGAROO EXPRESS 3893",-84.19606,31.223673,"301 US Highway 19 S","","Camilla","GA","31730","6300","MITCHELL" 
"KANGAROO EXPRESS 3892",-84.541809,30.903482,"2011 E Shotwell St","","Bainbridge","GA","39819","8404","DECATUR" 
"ALLENS SUPERMARKET",-84.236458,32.558067,"6 IVEY STREET","","BUTLER","GA","31006","","TAYLOR" 
"M & S DISCOUNT GROCERY",-81.345192,32.148724,"2760 US Highway 80","","Bloomingdale","GA","31302","4539","CHATHAM" 
"CHEVRON FOOD MART",-84.407883,33.721619,"1217 Metropolitan Pkwy SW","","Atlanta","GA","30310","3514","FULTON" 
"Family Dollar Store 350",-84.732292,33.75106,"6113 Fairburn Rd","","Douglasville","GA","30134","2371","DOUGLAS" 
"Family Dollar Store 716",-84.349442,33.713646,"1400 Moreland Ave SE","","Atlanta","GA","30316","3207","FULTON" 
"Family Dollar Store 2678",-84.43589,33.607487,"5425 Riverdale Rd","","Atlanta","GA","30349","6193","FULTON" 
"PIGGLY WIGGLY",-84.697861,32.079781,"100 PIGGLY WIGGLY WAY","","RICHLAND","GA","31825","","STEWART" 
"KROGER 414",-82.132767,33.54044,"4355 Washington Rd","","Evans","GA","30809","3939","COLUMBIA" 
"KANGAROO EXPRESS 3894",-84.615166,30.980171,"1405 HIGHWAY 27 SOUTH","","BAINBRIDGE","GA","39817","","DECATUR" 
"C AND J MARKET",-81.996078,33.461384,"1565 15th St","","Augusta","GA","30901","3481","RICHMOND" 
"SALT LICK SAUSAGE COMPANY",-83.912994,31.855219,"2346 GA Highway 300 S","","Cordele","GA","31015","6314","CRISP" 
"HOLLAND PRODUCE",-83.548409,34.6157,"5923 Highway 115","","Clarkesville","GA","30523","6743","HABERSHAM" 
"Family Dollar Store 728",-84.450951,33.820496,"2567 Bolton Rd NW","","Atlanta","GA","30318","1322","FULTON" 
"Family Dollar Store 2341",-84.55571,33.933899,"728 Sandtown Rd SW","","Marietta","GA","30008","3046","COBB" 
"Family Dollar Store 2394",-84.220352,33.884098,"3201 Tucker Norcross Rd","Ste B2","Tucker","GA","30084","2152","DEKALB" 
"Family Dollar Store 3143",-84.537704,33.892189,"2500 Cobb St Dr SE","Ste F","Smyrna","GA","30080","1838","COBB" 
"Family Dollar Store 3583",-84.270775,33.943169,"5025 Winters Chapel Rd","Ste B","Atlanta","GA","30360","1700","DEKALB" 
"Family Dollar Store 3891",-84.205711,33.904366,"5345 Jimmy Carter Blvd","","Norcross","GA","30093","1515","GWINNETT" 
"Family Dollar Store 1788",-84.455635,33.688858,"2060 Headland Dr","","Atlanta","GA","30344","2135","FULTON" 
"Family Dollar Store 3002",-84.461311,33.671131,"3104 Washington Rd","","East Point","GA","30344","5415","FULTON" 
"Family Dollar Store 3669",-84.364349,33.59058,"798 Morrow Rd","","Forest Park","GA","30297","3229","CLAYTON" 
"Family Dollar Store 5059",-84.408569,33.663795,"3310 Dogwood Dr","","Hapeville","GA","30354","1440","FULTON" 
"Family Dollar Store 7167",-84.311592,33.859089,"3412 Clairmont Rd NE","#16","Atlanta","GA","30319","3720","DEKALB" 
"Family Dollar Store 7189",-84.442078,33.659195,"1616 Virginia Ave","","Atlanta","GA","30337","2824","FULTON" 
"Family Dollar Store 364",-84.590668,33.816505,"1255 Veterans Memorial Hwy SW","#16","Mableton","GA","30126","3109","COBB" 
"Family Dollar Store 4572",-84.143433,34.00193,"3090 Buford Hwy","","Duluth","GA","30096","","GWINNETT" 
"Family Dollar Store 4576",-84.060577,33.926624,"2369 Lawrenceville Hwy","","Lawrenceville","GA","30044","4406","GWINNETT" 
"Family Dollar Store 5607",-84.223701,33.849262,"3855 Lawrenceville Hwy","","Tucker","GA","30084","4504","DEKALB" 
"Family Dollar Store 6501",-84.414314,33.772976,"824 Donald Lee Hollowell Pkwy NW","","Atlanta","GA","30318","8402","FULTON" 
"Family Dollar Store 7253",-84.472092,33.775558,"2615 Donald Lee Hollowell Pkwy NW","","Atlanta","GA","30318","8316","FULTON" 
"Family Dollar Stores 7292",-84.636772,33.80508,"3036 Veterans Memorial Hwy","","Austell","GA","30168","4028","COBB" 
"GRANTS COUNTRY STORE",-85.064148,34.004826,"994 Cedartown Hwy","","Rockmart","GA","30153","1665","POLK" 
"CITY MARKET INC",-81.487396,31.151182,"1508 Gloucester St","","Brunswick","GA","31520","7143","GLYNN" 
"Kangaroo 3333",-84.166206,33.408146,"978 Highway 155 S","","McDonough","GA","30253","7357","HENRY" 
"KANGAROO 3331",-84.190247,33.292816,"3420 Jackson Rd","","Griffin","GA","30223","6625","SPALDING" 
"KANGAROO EXPRESS 3328",-84.115044,33.353432,"5080 Bill Gardner Pkwy","","Locust Grove","GA","30248","3645","HENRY" 
"KANGAROO 3330",-84.283211,33.383926,"32 E MAIN ST","","HAMPTON","GA","30228","","HENRY" 
"CIRCLE K STORE 2725",-82.141937,33.521816,"318 N Belair Rd","","Evans","GA","30809","3095","COLUMBIA" 
"KANGAROO 3344",-84.212082,33.482483,"3148 Jodeco Rd","","McDonough","GA","30253","5395","HENRY" 
"KANGAROO EXPRESS 3658",-85.340302,34.491585,"10935 Commerce St","","Summerville","GA","30747","1478","CHATTOOGA" 
"KANGAROO EXPRESS 3651",-84.945007,34.486778,"808 S Wall St","","Calhoun","GA","30701","2618","GORDON" 
"KELETA VILLAGE MART",-83.719559,33.649929,"247 Cannon Dr SE","","Social Circle","GA","30025","3051","WALTON" 
"FLOWERS DISCOUNT BAKERY STORE",-84.505943,33.948223,"146 Powers Ferry Rd SE","","Marietta","GA","30067","7576","COBB" 
"Target Stores T-1380",-83.685997,32.618275,"2929 Watson Blvd","","Warner Robins","GA","31093","8535","HOUSTON" 
"CARBONDALE CHEVRON",-84.982719,34.653934,"160 Carbondale Rd SW","","Dalton","GA","30721","5301","WHITFIELD" 
"Family Dollar Store 235",-84.459442,33.705692,"2178 Campbellton Rd SW","","Atlanta","GA","30311","4606","FULTON" 
"Family Dollar Store 3075",-84.51889,33.861362,"3791 S Cobb Dr SE","Ste H","Smyrna","GA","30080","5514","COBB" 
"Family Dollar Store 3408",-84.663559,33.793652,"3750 Bankhead Hwy","","Lithia Springs","GA","30122","1800","DOUGLAS" 
"Family Dollar Store 3475",-84.228104,33.819088,"4602 E Ponce de Leon Ave","","Clarkston","GA","30021","1870","DEKALB" 
"Family Dollar Store 3670",-84.23037,33.681469,"4824 Flat Shoals Pkwy","","Decatur","GA","30034","5205","DEKALB" 
"Family Dollar Store 4370",-84.566116,33.7775,"361 Six Flags Dr","","Austell","GA","30168","2810","COBB" 
"Family Dollar Store 4404",-84.156609,33.8885,"5279 Lawrenceville Hwy NW","","Lilburn","GA","30047","5922","GWINNETT" 
"Family Dollar Store 397",-84.354973,33.625385,"4735 Jonesboro Rd","","Forest Park","GA","30297","4318","CLAYTON" 
"Family Dollar Store 902",-84.408783,33.697273,"2779 Lakewood Ave SW","","Atlanta","GA","30315","5810","FULTON" 
"Family Dollar Store 2028",-84.223915,33.796963,"5209 Memorial Dr","","Stone Mountain","GA","30083","3112","DEKALB" 
"Family Dollar Store 5239",-84.281479,33.577206,"6463 Highway 42","","Rex","GA","30273","1765","CLAYTON" 
"Family Dollar Store 5315",-84.240974,33.61993,"156 Fairview Rd","","Ellenwood","GA","30294","2723","DEKALB" 
"FLOWERS DISCOUNT BAKERY STORE",-84.162453,33.871223,"116 Harmony Grove Rd","","Lilburn","GA","30047","6235","GWINNETT" 
"QUICK MART",-84.021103,33.689201,"990 Sigman Rd NW","","Conyers","GA","30012","4006","ROCKDALE" 
"T & P FOOD & GAS",-84.267227,33.700279,"3690 Flat Shoals Rd","","Decatur","GA","30034","1632","DEKALB" 
